header: 
  seq: 8311
  stamp: 
    secs: 120
    nsecs: 408500000
  frame_id: ''
orientation: 
  x: 0.0
  y: 0.0
  z: 0.0
  w: 0.0
orientation_covariance: [0.0, 0.0, 0.0, 0.0, 0.0, 0.0, 0.0, 0.0, 0.0]
angular_velocity: 
  x: 5.911430176504794
  y: 8.283332629965088
  z: 0.5305800926062761
angular_velocity_covariance: [0.0, 0.0, 0.0, 0.0, 0.0, 0.0, 0.0, 0.0, 0.0]
linear_acceleration: 
  x: -6.9
  y: 2.5
  z: 6.6000000000000005
linear_acceleration_covariance: [0.0, 0.0, 0.0, 0.0, 0.0, 0.0, 0.0, 0.0, 0.0]
---
header: 
  seq: 8312
  stamp: 
    secs: 120
    nsecs: 425600000
  frame_id: ''
orientation: 
  x: 0.0
  y: 0.0
  z: 0.0
  w: 0.0
orientation_covariance: [0.0, 0.0, 0.0, 0.0, 0.0, 0.0, 0.0, 0.0, 0.0]
angular_velocity: 
  x: 6.4367742813550874
  y: 7.190756518216639
  z: 0.9704030641088474
angular_velocity_covariance: [0.0, 0.0, 0.0, 0.0, 0.0, 0.0, 0.0, 0.0, 0.0]
linear_acceleration: 
  x: -6.9
  y: 2.5
  z: 6.6000000000000005
linear_acceleration_covariance: [0.0, 0.0, 0.0, 0.0, 0.0, 0.0, 0.0, 0.0, 0.0]
---
header: 
  seq: 8313
  stamp: 
    secs: 120
    nsecs: 441800000
  frame_id: ''
orientation: 
  x: 0.0
  y: 0.0
  z: 0.0
  w: 0.0
orientation_covariance: [0.0, 0.0, 0.0, 0.0, 0.0, 0.0, 0.0, 0.0, 0.0]
angular_velocity: 
  x: 3.9514254265151623
  y: 3.6145768808802567
  z: 1.181587903600161
angular_velocity_covariance: [0.0, 0.0, 0.0, 0.0, 0.0, 0.0, 0.0, 0.0, 0.0]
linear_acceleration: 
  x: -5.2
  y: 6.0
  z: -1.9000000000000001
linear_acceleration_covariance: [0.0, 0.0, 0.0, 0.0, 0.0, 0.0, 0.0, 0.0, 0.0]
---
header: 
  seq: 8314
  stamp: 
    secs: 120
    nsecs: 459500000
  frame_id: ''
orientation: 
  x: 0.0
  y: 0.0
  z: 0.0
  w: 0.0
orientation_covariance: [0.0, 0.0, 0.0, 0.0, 0.0, 0.0, 0.0, 0.0, 0.0]
angular_velocity: 
  x: 3.9514254265151623
  y: 3.6145768808802567
  z: 1.181587903600161
angular_velocity_covariance: [0.0, 0.0, 0.0, 0.0, 0.0, 0.0, 0.0, 0.0, 0.0]
linear_acceleration: 
  x: -1.9000000000000001
  y: 7.0
  z: -6.9
linear_acceleration_covariance: [0.0, 0.0, 0.0, 0.0, 0.0, 0.0, 0.0, 0.0, 0.0]
---
header: 
  seq: 8315
  stamp: 
    secs: 120
    nsecs: 479800000
  frame_id: ''
orientation: 
  x: 0.0
  y: 0.0
  z: 0.0
  w: 0.0
orientation_covariance: [0.0, 0.0, 0.0, 0.0, 0.0, 0.0, 0.0, 0.0, 0.0]
angular_velocity: 
  x: -0.9756390518648304
  y: -3.5150931135165804
  z: -0.33859387488689996
angular_velocity_covariance: [0.0, 0.0, 0.0, 0.0, 0.0, 0.0, 0.0, 0.0, 0.0]
linear_acceleration: 
  x: -0.9
  y: 6.9
  z: -10.100000000000001
linear_acceleration_covariance: [0.0, 0.0, 0.0, 0.0, 0.0, 0.0, 0.0, 0.0, 0.0]
---
header: 
  seq: 8316
  stamp: 
    secs: 120
    nsecs: 492700000
  frame_id: ''
orientation: 
  x: 0.0
  y: 0.0
  z: 0.0
  w: 0.0
orientation_covariance: [0.0, 0.0, 0.0, 0.0, 0.0, 0.0, 0.0, 0.0, 0.0]
angular_velocity: 
  x: -0.9756390518648304
  y: -3.5150931135165804
  z: -0.33859387488689996
angular_velocity_covariance: [0.0, 0.0, 0.0, 0.0, 0.0, 0.0, 0.0, 0.0, 0.0]
linear_acceleration: 
  x: -0.9
  y: 6.9
  z: -10.100000000000001
linear_acceleration_covariance: [0.0, 0.0, 0.0, 0.0, 0.0, 0.0, 0.0, 0.0, 0.0]
---
header: 
  seq: 8317
  stamp: 
    secs: 120
    nsecs: 508500000
  frame_id: ''
orientation: 
  x: 0.0
  y: 0.0
  z: 0.0
  w: 0.0
orientation_covariance: [0.0, 0.0, 0.0, 0.0, 0.0, 0.0, 0.0, 0.0, 0.0]
angular_velocity: 
  x: -5.87303293296092
  y: -7.686430025783028
  z: -0.7923794804054257
angular_velocity_covariance: [0.0, 0.0, 0.0, 0.0, 0.0, 0.0, 0.0, 0.0, 0.0]
linear_acceleration: 
  x: -4.7
  y: 3.6
  z: -4.4
linear_acceleration_covariance: [0.0, 0.0, 0.0, 0.0, 0.0, 0.0, 0.0, 0.0, 0.0]
---
header: 
  seq: 8318
  stamp: 
    secs: 120
    nsecs: 525100000
  frame_id: ''
orientation: 
  x: 0.0
  y: 0.0
  z: 0.0
  w: 0.0
orientation_covariance: [0.0, 0.0, 0.0, 0.0, 0.0, 0.0, 0.0, 0.0, 0.0]
angular_velocity: 
  x: -5.87303293296092
  y: -7.686430025783028
  z: -0.7923794804054257
angular_velocity_covariance: [0.0, 0.0, 0.0, 0.0, 0.0, 0.0, 0.0, 0.0, 0.0]
linear_acceleration: 
  x: -4.7
  y: 3.6
  z: -4.4
linear_acceleration_covariance: [0.0, 0.0, 0.0, 0.0, 0.0, 0.0, 0.0, 0.0, 0.0]
---
header: 
  seq: 8319
  stamp: 
    secs: 120
    nsecs: 542200000
  frame_id: ''
orientation: 
  x: 0.0
  y: 0.0
  z: 0.0
  w: 0.0
orientation_covariance: [0.0, 0.0, 0.0, 0.0, 0.0, 0.0, 0.0, 0.0, 0.0]
angular_velocity: 
  x: -6.349507818755371
  y: -6.831218692305805
  z: 0.2530727415391778
angular_velocity_covariance: [0.0, 0.0, 0.0, 0.0, 0.0, 0.0, 0.0, 0.0, 0.0]
linear_acceleration: 
  x: -5.4
  y: 2.0
  z: 11.100000000000001
linear_acceleration_covariance: [0.0, 0.0, 0.0, 0.0, 0.0, 0.0, 0.0, 0.0, 0.0]
---
header: 
  seq: 8320
  stamp: 
    secs: 120
    nsecs: 559600000
  frame_id: ''
orientation: 
  x: 0.0
  y: 0.0
  z: 0.0
  w: 0.0
orientation_covariance: [0.0, 0.0, 0.0, 0.0, 0.0, 0.0, 0.0, 0.0, 0.0]
angular_velocity: 
  x: -6.349507818755371
  y: -6.831218692305805
  z: 0.2530727415391778
angular_velocity_covariance: [0.0, 0.0, 0.0, 0.0, 0.0, 0.0, 0.0, 0.0, 0.0]
linear_acceleration: 
  x: -5.4
  y: 2.0
  z: 11.100000000000001
linear_acceleration_covariance: [0.0, 0.0, 0.0, 0.0, 0.0, 0.0, 0.0, 0.0, 0.0]
---
header: 
  seq: 8321
  stamp: 
    secs: 120
    nsecs: 575200000
  frame_id: ''
orientation: 
  x: 0.0
  y: 0.0
  z: 0.0
  w: 0.0
orientation_covariance: [0.0, 0.0, 0.0, 0.0, 0.0, 0.0, 0.0, 0.0, 0.0]
angular_velocity: 
  x: 0.57246799465414
  y: 4.677482395344804
  z: 0.7714355293814937
angular_velocity_covariance: [0.0, 0.0, 0.0, 0.0, 0.0, 0.0, 0.0, 0.0, 0.0]
linear_acceleration: 
  x: -0.2
  y: 2.7
  z: 27.400000000000002
linear_acceleration_covariance: [0.0, 0.0, 0.0, 0.0, 0.0, 0.0, 0.0, 0.0, 0.0]
---
header: 
  seq: 8322
  stamp: 
    secs: 120
    nsecs: 592900000
  frame_id: ''
orientation: 
  x: 0.0
  y: 0.0
  z: 0.0
  w: 0.0
orientation_covariance: [0.0, 0.0, 0.0, 0.0, 0.0, 0.0, 0.0, 0.0, 0.0]
angular_velocity: 
  x: 0.57246799465414
  y: 4.677482395344804
  z: 0.7714355293814937
angular_velocity_covariance: [0.0, 0.0, 0.0, 0.0, 0.0, 0.0, 0.0, 0.0, 0.0]
linear_acceleration: 
  x: -1.5
  y: 1.8
  z: 23.400000000000002
linear_acceleration_covariance: [0.0, 0.0, 0.0, 0.0, 0.0, 0.0, 0.0, 0.0, 0.0]
---
header: 
  seq: 8323
  stamp: 
    secs: 120
    nsecs: 609100000
  frame_id: ''
orientation: 
  x: 0.0
  y: 0.0
  z: 0.0
  w: 0.0
orientation_covariance: [0.0, 0.0, 0.0, 0.0, 0.0, 0.0, 0.0, 0.0, 0.0]
angular_velocity: 
  x: 6.932447788921478
  y: 9.227555755294022
  z: 0.5654866776461629
angular_velocity_covariance: [0.0, 0.0, 0.0, 0.0, 0.0, 0.0, 0.0, 0.0, 0.0]
linear_acceleration: 
  x: -6.5
  y: 1.9000000000000001
  z: 11.9
linear_acceleration_covariance: [0.0, 0.0, 0.0, 0.0, 0.0, 0.0, 0.0, 0.0, 0.0]
---
header: 
  seq: 8324
  stamp: 
    secs: 120
    nsecs: 626200000
  frame_id: ''
orientation: 
  x: 0.0
  y: 0.0
  z: 0.0
  w: 0.0
orientation_covariance: [0.0, 0.0, 0.0, 0.0, 0.0, 0.0, 0.0, 0.0, 0.0]
angular_velocity: 
  x: 6.932447788921478
  y: 9.227555755294022
  z: 0.5654866776461629
angular_velocity_covariance: [0.0, 0.0, 0.0, 0.0, 0.0, 0.0, 0.0, 0.0, 0.0]
linear_acceleration: 
  x: -8.8
  y: 2.9000000000000004
  z: 2.1
linear_acceleration_covariance: [0.0, 0.0, 0.0, 0.0, 0.0, 0.0, 0.0, 0.0, 0.0]
---
header: 
  seq: 8325
  stamp: 
    secs: 120
    nsecs: 642400000
  frame_id: ''
orientation: 
  x: 0.0
  y: 0.0
  z: 0.0
  w: 0.0
orientation_covariance: [0.0, 0.0, 0.0, 0.0, 0.0, 0.0, 0.0, 0.0, 0.0]
angular_velocity: 
  x: 4.773475504204493
  y: 4.60766922526503
  z: 1.4381513036433273
angular_velocity_covariance: [0.0, 0.0, 0.0, 0.0, 0.0, 0.0, 0.0, 0.0, 0.0]
linear_acceleration: 
  x: -7.7
  y: 4.9
  z: -0.5
linear_acceleration_covariance: [0.0, 0.0, 0.0, 0.0, 0.0, 0.0, 0.0, 0.0, 0.0]
---
header: 
  seq: 8326
  stamp: 
    secs: 120
    nsecs: 658900000
  frame_id: ''
orientation: 
  x: 0.0
  y: 0.0
  z: 0.0
  w: 0.0
orientation_covariance: [0.0, 0.0, 0.0, 0.0, 0.0, 0.0, 0.0, 0.0, 0.0]
angular_velocity: 
  x: 4.773475504204493
  y: 4.60766922526503
  z: 1.4381513036433273
angular_velocity_covariance: [0.0, 0.0, 0.0, 0.0, 0.0, 0.0, 0.0, 0.0, 0.0]
linear_acceleration: 
  x: -4.800000000000001
  y: 6.4
  z: -1.5
linear_acceleration_covariance: [0.0, 0.0, 0.0, 0.0, 0.0, 0.0, 0.0, 0.0, 0.0]
---
header: 
  seq: 8327
  stamp: 
    secs: 120
    nsecs: 675200000
  frame_id: ''
orientation: 
  x: 0.0
  y: 0.0
  z: 0.0
  w: 0.0
orientation_covariance: [0.0, 0.0, 0.0, 0.0, 0.0, 0.0, 0.0, 0.0, 0.0]
angular_velocity: 
  x: 3.2148964821735553
  y: 2.069960492865275
  z: 1.2479104151759457
angular_velocity_covariance: [0.0, 0.0, 0.0, 0.0, 0.0, 0.0, 0.0, 0.0, 0.0]
linear_acceleration: 
  x: -4.800000000000001
  y: 6.4
  z: -1.5
linear_acceleration_covariance: [0.0, 0.0, 0.0, 0.0, 0.0, 0.0, 0.0, 0.0, 0.0]
---
header: 
  seq: 8328
  stamp: 
    secs: 120
    nsecs: 693900000
  frame_id: ''
orientation: 
  x: 0.0
  y: 0.0
  z: 0.0
  w: 0.0
orientation_covariance: [0.0, 0.0, 0.0, 0.0, 0.0, 0.0, 0.0, 0.0, 0.0]
angular_velocity: 
  x: 1.3159782560037245
  y: -1.206022513128082
  z: 0.4625122517784973
angular_velocity_covariance: [0.0, 0.0, 0.0, 0.0, 0.0, 0.0, 0.0, 0.0, 0.0]
linear_acceleration: 
  x: 0.7000000000000001
  y: 6.6000000000000005
  z: -11.100000000000001
linear_acceleration_covariance: [0.0, 0.0, 0.0, 0.0, 0.0, 0.0, 0.0, 0.0, 0.0]
---
header: 
  seq: 8329
  stamp: 
    secs: 120
    nsecs: 708800000
  frame_id: ''
orientation: 
  x: 0.0
  y: 0.0
  z: 0.0
  w: 0.0
orientation_covariance: [0.0, 0.0, 0.0, 0.0, 0.0, 0.0, 0.0, 0.0, 0.0]
angular_velocity: 
  x: -1.239183768915974
  y: -4.23242343608625
  z: -0.6422811647339133
angular_velocity_covariance: [0.0, 0.0, 0.0, 0.0, 0.0, 0.0, 0.0, 0.0, 0.0]
linear_acceleration: 
  x: 0.7000000000000001
  y: 6.6000000000000005
  z: -11.100000000000001
linear_acceleration_covariance: [0.0, 0.0, 0.0, 0.0, 0.0, 0.0, 0.0, 0.0, 0.0]
---
header: 
  seq: 8330
  stamp: 
    secs: 120
    nsecs: 725600000
  frame_id: ''
orientation: 
  x: 0.0
  y: 0.0
  z: 0.0
  w: 0.0
orientation_covariance: [0.0, 0.0, 0.0, 0.0, 0.0, 0.0, 0.0, 0.0, 0.0]
angular_velocity: 
  x: -6.316346562967479
  y: -7.770205829878756
  z: -1.1641346110802178
angular_velocity_covariance: [0.0, 0.0, 0.0, 0.0, 0.0, 0.0, 0.0, 0.0, 0.0]
linear_acceleration: 
  x: -4.7
  y: 3.2
  z: -5.800000000000001
linear_acceleration_covariance: [0.0, 0.0, 0.0, 0.0, 0.0, 0.0, 0.0, 0.0, 0.0]
---
header: 
  seq: 8331
  stamp: 
    secs: 120
    nsecs: 742900000
  frame_id: ''
orientation: 
  x: 0.0
  y: 0.0
  z: 0.0
  w: 0.0
orientation_covariance: [0.0, 0.0, 0.0, 0.0, 0.0, 0.0, 0.0, 0.0, 0.0]
angular_velocity: 
  x: -6.316346562967479
  y: -7.770205829878756
  z: -1.1641346110802178
angular_velocity_covariance: [0.0, 0.0, 0.0, 0.0, 0.0, 0.0, 0.0, 0.0, 0.0]
linear_acceleration: 
  x: -4.7
  y: 3.2
  z: -5.800000000000001
linear_acceleration_covariance: [0.0, 0.0, 0.0, 0.0, 0.0, 0.0, 0.0, 0.0, 0.0]
---
header: 
  seq: 8332
  stamp: 
    secs: 120
    nsecs: 758400000
  frame_id: ''
orientation: 
  x: 0.0
  y: 0.0
  z: 0.0
  w: 0.0
orientation_covariance: [0.0, 0.0, 0.0, 0.0, 0.0, 0.0, 0.0, 0.0, 0.0]
angular_velocity: 
  x: -7.510151771331599
  y: -7.311184236604246
  z: 0.06283185307179587
angular_velocity_covariance: [0.0, 0.0, 0.0, 0.0, 0.0, 0.0, 0.0, 0.0, 0.0]
linear_acceleration: 
  x: -3.1
  y: 0.30000000000000004
  z: 7.300000000000001
linear_acceleration_covariance: [0.0, 0.0, 0.0, 0.0, 0.0, 0.0, 0.0, 0.0, 0.0]
---
header: 
  seq: 8333
  stamp: 
    secs: 120
    nsecs: 775100000
  frame_id: ''
orientation: 
  x: 0.0
  y: 0.0
  z: 0.0
  w: 0.0
orientation_covariance: [0.0, 0.0, 0.0, 0.0, 0.0, 0.0, 0.0, 0.0, 0.0]
angular_velocity: 
  x: -7.510151771331599
  y: -7.311184236604246
  z: 0.06283185307179587
angular_velocity_covariance: [0.0, 0.0, 0.0, 0.0, 0.0, 0.0, 0.0, 0.0, 0.0]
linear_acceleration: 
  x: -3.1
  y: 0.30000000000000004
  z: 7.300000000000001
linear_acceleration_covariance: [0.0, 0.0, 0.0, 0.0, 0.0, 0.0, 0.0, 0.0, 0.0]
---
header: 
  seq: 8334
  stamp: 
    secs: 120
    nsecs: 791900000
  frame_id: ''
orientation: 
  x: 0.0
  y: 0.0
  z: 0.0
  w: 0.0
orientation_covariance: [0.0, 0.0, 0.0, 0.0, 0.0, 0.0, 0.0, 0.0, 0.0]
angular_velocity: 
  x: -4.209734155810323
  y: -1.6667894356545847
  z: 0.466002910282486
angular_velocity_covariance: [0.0, 0.0, 0.0, 0.0, 0.0, 0.0, 0.0, 0.0, 0.0]
linear_acceleration: 
  x: -2.8000000000000003
  y: 0.5
  z: 19.5
linear_acceleration_covariance: [0.0, 0.0, 0.0, 0.0, 0.0, 0.0, 0.0, 0.0, 0.0]
---
header: 
  seq: 8335
  stamp: 
    secs: 120
    nsecs: 809700000
  frame_id: ''
orientation: 
  x: 0.0
  y: 0.0
  z: 0.0
  w: 0.0
orientation_covariance: [0.0, 0.0, 0.0, 0.0, 0.0, 0.0, 0.0, 0.0, 0.0]
angular_velocity: 
  x: -4.209734155810323
  y: -1.6667894356545847
  z: 0.466002910282486
angular_velocity_covariance: [0.0, 0.0, 0.0, 0.0, 0.0, 0.0, 0.0, 0.0, 0.0]
linear_acceleration: 
  x: -2.8000000000000003
  y: 0.5
  z: 19.5
linear_acceleration_covariance: [0.0, 0.0, 0.0, 0.0, 0.0, 0.0, 0.0, 0.0, 0.0]
---
header: 
  seq: 8336
  stamp: 
    secs: 120
    nsecs: 825800000
  frame_id: ''
orientation: 
  x: 0.0
  y: 0.0
  z: 0.0
  w: 0.0
orientation_covariance: [0.0, 0.0, 0.0, 0.0, 0.0, 0.0, 0.0, 0.0, 0.0]
angular_velocity: 
  x: 2.178170906488923
  y: 6.021385919380437
  z: 0.0645771823237902
angular_velocity_covariance: [0.0, 0.0, 0.0, 0.0, 0.0, 0.0, 0.0, 0.0, 0.0]
linear_acceleration: 
  x: -3.0
  y: 1.1
  z: 22.8
linear_acceleration_covariance: [0.0, 0.0, 0.0, 0.0, 0.0, 0.0, 0.0, 0.0, 0.0]
---
header: 
  seq: 8337
  stamp: 
    secs: 120
    nsecs: 842000000
  frame_id: ''
orientation: 
  x: 0.0
  y: 0.0
  z: 0.0
  w: 0.0
orientation_covariance: [0.0, 0.0, 0.0, 0.0, 0.0, 0.0, 0.0, 0.0, 0.0]
angular_velocity: 
  x: 2.178170906488923
  y: 6.021385919380437
  z: 0.0645771823237902
angular_velocity_covariance: [0.0, 0.0, 0.0, 0.0, 0.0, 0.0, 0.0, 0.0, 0.0]
linear_acceleration: 
  x: -3.0
  y: 1.1
  z: 22.8
linear_acceleration_covariance: [0.0, 0.0, 0.0, 0.0, 0.0, 0.0, 0.0, 0.0, 0.0]
---
header: 
  seq: 8338
  stamp: 
    secs: 120
    nsecs: 858700000
  frame_id: ''
orientation: 
  x: 0.0
  y: 0.0
  z: 0.0
  w: 0.0
orientation_covariance: [0.0, 0.0, 0.0, 0.0, 0.0, 0.0, 0.0, 0.0, 0.0]
angular_velocity: 
  x: 5.410520681182422
  y: 6.023131248632431
  z: 0.37350045992678654
angular_velocity_covariance: [0.0, 0.0, 0.0, 0.0, 0.0, 0.0, 0.0, 0.0, 0.0]
linear_acceleration: 
  x: -6.9
  y: 1.2000000000000002
  z: 12.0
linear_acceleration_covariance: [0.0, 0.0, 0.0, 0.0, 0.0, 0.0, 0.0, 0.0, 0.0]
---
header: 
  seq: 8339
  stamp: 
    secs: 120
    nsecs: 875300000
  frame_id: ''
orientation: 
  x: 0.0
  y: 0.0
  z: 0.0
  w: 0.0
orientation_covariance: [0.0, 0.0, 0.0, 0.0, 0.0, 0.0, 0.0, 0.0, 0.0]
angular_velocity: 
  x: 5.410520681182422
  y: 6.023131248632431
  z: 0.37350045992678654
angular_velocity_covariance: [0.0, 0.0, 0.0, 0.0, 0.0, 0.0, 0.0, 0.0, 0.0]
linear_acceleration: 
  x: -7.2
  y: 2.5
  z: 7.9
linear_acceleration_covariance: [0.0, 0.0, 0.0, 0.0, 0.0, 0.0, 0.0, 0.0, 0.0]
---
header: 
  seq: 8340
  stamp: 
    secs: 120
    nsecs: 892000000
  frame_id: ''
orientation: 
  x: 0.0
  y: 0.0
  z: 0.0
  w: 0.0
orientation_covariance: [0.0, 0.0, 0.0, 0.0, 0.0, 0.0, 0.0, 0.0, 0.0]
angular_velocity: 
  x: 5.16791991515521
  y: 4.810127418496372
  z: 0.6789330790257943
angular_velocity_covariance: [0.0, 0.0, 0.0, 0.0, 0.0, 0.0, 0.0, 0.0, 0.0]
linear_acceleration: 
  x: -7.6000000000000005
  y: 4.2
  z: 6.7
linear_acceleration_covariance: [0.0, 0.0, 0.0, 0.0, 0.0, 0.0, 0.0, 0.0, 0.0]
---
header: 
  seq: 8341
  stamp: 
    secs: 120
    nsecs: 908700000
  frame_id: ''
orientation: 
  x: 0.0
  y: 0.0
  z: 0.0
  w: 0.0
orientation_covariance: [0.0, 0.0, 0.0, 0.0, 0.0, 0.0, 0.0, 0.0, 0.0]
angular_velocity: 
  x: 5.16791991515521
  y: 4.810127418496372
  z: 0.6789330790257943
angular_velocity_covariance: [0.0, 0.0, 0.0, 0.0, 0.0, 0.0, 0.0, 0.0, 0.0]
linear_acceleration: 
  x: -7.9
  y: 5.0
  z: 5.4
linear_acceleration_covariance: [0.0, 0.0, 0.0, 0.0, 0.0, 0.0, 0.0, 0.0, 0.0]
---
header: 
  seq: 8342
  stamp: 
    secs: 120
    nsecs: 925600000
  frame_id: ''
orientation: 
  x: 0.0
  y: 0.0
  z: 0.0
  w: 0.0
orientation_covariance: [0.0, 0.0, 0.0, 0.0, 0.0, 0.0, 0.0, 0.0, 0.0]
angular_velocity: 
  x: 4.979424355939822
  y: 4.080579791162743
  z: 0.830776723949301
angular_velocity_covariance: [0.0, 0.0, 0.0, 0.0, 0.0, 0.0, 0.0, 0.0, 0.0]
linear_acceleration: 
  x: -7.300000000000001
  y: 5.6000000000000005
  z: 2.1
linear_acceleration_covariance: [0.0, 0.0, 0.0, 0.0, 0.0, 0.0, 0.0, 0.0, 0.0]
---
header: 
  seq: 8343
  stamp: 
    secs: 120
    nsecs: 942200000
  frame_id: ''
orientation: 
  x: 0.0
  y: 0.0
  z: 0.0
  w: 0.0
orientation_covariance: [0.0, 0.0, 0.0, 0.0, 0.0, 0.0, 0.0, 0.0, 0.0]
angular_velocity: 
  x: 4.701917004872724
  y: 3.3161255787892263
  z: 0.9215338450530062
angular_velocity_covariance: [0.0, 0.0, 0.0, 0.0, 0.0, 0.0, 0.0, 0.0, 0.0]
linear_acceleration: 
  x: -5.4
  y: 6.1000000000000005
  z: -3.9000000000000004
linear_acceleration_covariance: [0.0, 0.0, 0.0, 0.0, 0.0, 0.0, 0.0, 0.0, 0.0]
---
header: 
  seq: 8344
  stamp: 
    secs: 120
    nsecs: 958800000
  frame_id: ''
orientation: 
  x: 0.0
  y: 0.0
  z: 0.0
  w: 0.0
orientation_covariance: [0.0, 0.0, 0.0, 0.0, 0.0, 0.0, 0.0, 0.0, 0.0]
angular_velocity: 
  x: 3.7943457938356726
  y: 2.0839231268812295
  z: 0.8482300164692442
angular_velocity_covariance: [0.0, 0.0, 0.0, 0.0, 0.0, 0.0, 0.0, 0.0, 0.0]
linear_acceleration: 
  x: -5.4
  y: 6.1000000000000005
  z: -3.9000000000000004
linear_acceleration_covariance: [0.0, 0.0, 0.0, 0.0, 0.0, 0.0, 0.0, 0.0, 0.0]
---
header: 
  seq: 8345
  stamp: 
    secs: 120
    nsecs: 976300000
  frame_id: ''
orientation: 
  x: 0.0
  y: 0.0
  z: 0.0
  w: 0.0
orientation_covariance: [0.0, 0.0, 0.0, 0.0, 0.0, 0.0, 0.0, 0.0, 0.0]
angular_velocity: 
  x: 1.891936909161853
  y: 0.038397243543875255
  z: 0.5044001538263613
angular_velocity_covariance: [0.0, 0.0, 0.0, 0.0, 0.0, 0.0, 0.0, 0.0, 0.0]
linear_acceleration: 
  x: -4.800000000000001
  y: 7.1000000000000005
  z: -13.5
linear_acceleration_covariance: [0.0, 0.0, 0.0, 0.0, 0.0, 0.0, 0.0, 0.0, 0.0]
---
header: 
  seq: 8346
  stamp: 
    secs: 120
    nsecs: 996200000
  frame_id: ''
orientation: 
  x: 0.0
  y: 0.0
  z: 0.0
  w: 0.0
orientation_covariance: [0.0, 0.0, 0.0, 0.0, 0.0, 0.0, 0.0, 0.0, 0.0]
angular_velocity: 
  x: -3.883357585687383
  y: -6.05454717516833
  z: 0.10471975511965978
angular_velocity_covariance: [0.0, 0.0, 0.0, 0.0, 0.0, 0.0, 0.0, 0.0, 0.0]
linear_acceleration: 
  x: -5.7
  y: 6.1000000000000005
  z: -12.8
linear_acceleration_covariance: [0.0, 0.0, 0.0, 0.0, 0.0, 0.0, 0.0, 0.0, 0.0]
---
header: 
  seq: 8347
  stamp: 
    secs: 121
    nsecs:   8400000
  frame_id: ''
orientation: 
  x: 0.0
  y: 0.0
  z: 0.0
  w: 0.0
orientation_covariance: [0.0, 0.0, 0.0, 0.0, 0.0, 0.0, 0.0, 0.0, 0.0]
angular_velocity: 
  x: -3.883357585687383
  y: -6.05454717516833
  z: 0.10471975511965978
angular_velocity_covariance: [0.0, 0.0, 0.0, 0.0, 0.0, 0.0, 0.0, 0.0, 0.0]
linear_acceleration: 
  x: -4.7
  y: 3.2
  z: -6.7
linear_acceleration_covariance: [0.0, 0.0, 0.0, 0.0, 0.0, 0.0, 0.0, 0.0, 0.0]
---
header: 
  seq: 8348
  stamp: 
    secs: 121
    nsecs:  25100000
  frame_id: ''
orientation: 
  x: 0.0
  y: 0.0
  z: 0.0
  w: 0.0
orientation_covariance: [0.0, 0.0, 0.0, 0.0, 0.0, 0.0, 0.0, 0.0, 0.0]
angular_velocity: 
  x: -6.48215284190694
  y: -8.995426964778774
  z: 0.37175513067479227
angular_velocity_covariance: [0.0, 0.0, 0.0, 0.0, 0.0, 0.0, 0.0, 0.0, 0.0]
linear_acceleration: 
  x: -4.7
  y: 3.2
  z: -6.7
linear_acceleration_covariance: [0.0, 0.0, 0.0, 0.0, 0.0, 0.0, 0.0, 0.0, 0.0]
---
header: 
  seq: 8349
  stamp: 
    secs: 121
    nsecs:  42900000
  frame_id: ''
orientation: 
  x: 0.0
  y: 0.0
  z: 0.0
  w: 0.0
orientation_covariance: [0.0, 0.0, 0.0, 0.0, 0.0, 0.0, 0.0, 0.0, 0.0]
angular_velocity: 
  x: -6.934193118173472
  y: -8.730136918475637
  z: 1.1274826967883371
angular_velocity_covariance: [0.0, 0.0, 0.0, 0.0, 0.0, 0.0, 0.0, 0.0, 0.0]
linear_acceleration: 
  x: -0.5
  y: 0.5
  z: 10.100000000000001
linear_acceleration_covariance: [0.0, 0.0, 0.0, 0.0, 0.0, 0.0, 0.0, 0.0, 0.0]
---
header: 
  seq: 8350
  stamp: 
    secs: 121
    nsecs:  59200000
  frame_id: ''
orientation: 
  x: 0.0
  y: 0.0
  z: 0.0
  w: 0.0
orientation_covariance: [0.0, 0.0, 0.0, 0.0, 0.0, 0.0, 0.0, 0.0, 0.0]
angular_velocity: 
  x: -6.934193118173472
  y: -8.730136918475637
  z: 1.1274826967883371
angular_velocity_covariance: [0.0, 0.0, 0.0, 0.0, 0.0, 0.0, 0.0, 0.0, 0.0]
linear_acceleration: 
  x: -0.5
  y: 0.5
  z: 10.100000000000001
linear_acceleration_covariance: [0.0, 0.0, 0.0, 0.0, 0.0, 0.0, 0.0, 0.0, 0.0]
---
header: 
  seq: 8351
  stamp: 
    secs: 121
    nsecs:  75200000
  frame_id: ''
orientation: 
  x: 0.0
  y: 0.0
  z: 0.0
  w: 0.0
orientation_covariance: [0.0, 0.0, 0.0, 0.0, 0.0, 0.0, 0.0, 0.0, 0.0]
angular_velocity: 
  x: -3.9392081217512023
  y: -5.70024533701348
  z: 0.8901179185171081
angular_velocity_covariance: [0.0, 0.0, 0.0, 0.0, 0.0, 0.0, 0.0, 0.0, 0.0]
linear_acceleration: 
  x: 1.5
  y: 0.30000000000000004
  z: 14.600000000000001
linear_acceleration_covariance: [0.0, 0.0, 0.0, 0.0, 0.0, 0.0, 0.0, 0.0, 0.0]
---
header: 
  seq: 8352
  stamp: 
    secs: 121
    nsecs:  91900000
  frame_id: ''
orientation: 
  x: 0.0
  y: 0.0
  z: 0.0
  w: 0.0
orientation_covariance: [0.0, 0.0, 0.0, 0.0, 0.0, 0.0, 0.0, 0.0, 0.0]
angular_velocity: 
  x: -3.9392081217512023
  y: -5.70024533701348
  z: 0.8901179185171081
angular_velocity_covariance: [0.0, 0.0, 0.0, 0.0, 0.0, 0.0, 0.0, 0.0, 0.0]
linear_acceleration: 
  x: 1.5
  y: 0.30000000000000004
  z: 14.600000000000001
linear_acceleration_covariance: [0.0, 0.0, 0.0, 0.0, 0.0, 0.0, 0.0, 0.0, 0.0]
---
header: 
  seq: 8353
  stamp: 
    secs: 121
    nsecs: 109200000
  frame_id: ''
orientation: 
  x: 0.0
  y: 0.0
  z: 0.0
  w: 0.0
orientation_covariance: [0.0, 0.0, 0.0, 0.0, 0.0, 0.0, 0.0, 0.0, 0.0]
angular_velocity: 
  x: -1.5760323145508799
  y: -3.070034154258025
  z: -0.2635447170511438
angular_velocity_covariance: [0.0, 0.0, 0.0, 0.0, 0.0, 0.0, 0.0, 0.0, 0.0]
linear_acceleration: 
  x: 5.5
  y: -0.30000000000000004
  z: 13.3
linear_acceleration_covariance: [0.0, 0.0, 0.0, 0.0, 0.0, 0.0, 0.0, 0.0, 0.0]
---
header: 
  seq: 8354
  stamp: 
    secs: 121
    nsecs: 125900000
  frame_id: ''
orientation: 
  x: 0.0
  y: 0.0
  z: 0.0
  w: 0.0
orientation_covariance: [0.0, 0.0, 0.0, 0.0, 0.0, 0.0, 0.0, 0.0, 0.0]
angular_velocity: 
  x: -1.5760323145508799
  y: -3.070034154258025
  z: -0.2635447170511438
angular_velocity_covariance: [0.0, 0.0, 0.0, 0.0, 0.0, 0.0, 0.0, 0.0, 0.0]
linear_acceleration: 
  x: 5.5
  y: -0.30000000000000004
  z: 13.3
linear_acceleration_covariance: [0.0, 0.0, 0.0, 0.0, 0.0, 0.0, 0.0, 0.0, 0.0]
---
header: 
  seq: 8355
  stamp: 
    secs: 121
    nsecs: 142200000
  frame_id: ''
orientation: 
  x: 0.0
  y: 0.0
  z: 0.0
  w: 0.0
orientation_covariance: [0.0, 0.0, 0.0, 0.0, 0.0, 0.0, 0.0, 0.0, 0.0]
angular_velocity: 
  x: 0.0
  y: -0.35779249665883756
  z: -1.720894642466409
angular_velocity_covariance: [0.0, 0.0, 0.0, 0.0, 0.0, 0.0, 0.0, 0.0, 0.0]
linear_acceleration: 
  x: 3.3000000000000003
  y: -0.1
  z: 13.3
linear_acceleration_covariance: [0.0, 0.0, 0.0, 0.0, 0.0, 0.0, 0.0, 0.0, 0.0]
---
header: 
  seq: 8356
  stamp: 
    secs: 121
    nsecs: 158400000
  frame_id: ''
orientation: 
  x: 0.0
  y: 0.0
  z: 0.0
  w: 0.0
orientation_covariance: [0.0, 0.0, 0.0, 0.0, 0.0, 0.0, 0.0, 0.0, 0.0]
angular_velocity: 
  x: 0.0
  y: -0.35779249665883756
  z: -1.720894642466409
angular_velocity_covariance: [0.0, 0.0, 0.0, 0.0, 0.0, 0.0, 0.0, 0.0, 0.0]
linear_acceleration: 
  x: 3.3000000000000003
  y: -0.1
  z: 13.3
linear_acceleration_covariance: [0.0, 0.0, 0.0, 0.0, 0.0, 0.0, 0.0, 0.0, 0.0]
---
header: 
  seq: 8357
  stamp: 
    secs: 121
    nsecs: 175900000
  frame_id: ''
orientation: 
  x: 0.0
  y: 0.0
  z: 0.0
  w: 0.0
orientation_covariance: [0.0, 0.0, 0.0, 0.0, 0.0, 0.0, 0.0, 0.0, 0.0]
angular_velocity: 
  x: 0.8517206749732329
  y: 0.8796459430051422
  z: -2.1415189921970423
angular_velocity_covariance: [0.0, 0.0, 0.0, 0.0, 0.0, 0.0, 0.0, 0.0, 0.0]
linear_acceleration: 
  x: 2.8000000000000003
  y: 0.2
  z: 13.9
linear_acceleration_covariance: [0.0, 0.0, 0.0, 0.0, 0.0, 0.0, 0.0, 0.0, 0.0]
---
header: 
  seq: 8358
  stamp: 
    secs: 121
    nsecs: 191900000
  frame_id: ''
orientation: 
  x: 0.0
  y: 0.0
  z: 0.0
  w: 0.0
orientation_covariance: [0.0, 0.0, 0.0, 0.0, 0.0, 0.0, 0.0, 0.0, 0.0]
angular_velocity: 
  x: 1.7837264955382048
  y: 1.6720254234105678
  z: -2.673844414055313
angular_velocity_covariance: [0.0, 0.0, 0.0, 0.0, 0.0, 0.0, 0.0, 0.0, 0.0]
linear_acceleration: 
  x: -1.3
  y: 0.8
  z: 17.5
linear_acceleration_covariance: [0.0, 0.0, 0.0, 0.0, 0.0, 0.0, 0.0, 0.0, 0.0]
---
header: 
  seq: 8359
  stamp: 
    secs: 121
    nsecs: 208400000
  frame_id: ''
orientation: 
  x: 0.0
  y: 0.0
  z: 0.0
  w: 0.0
orientation_covariance: [0.0, 0.0, 0.0, 0.0, 0.0, 0.0, 0.0, 0.0, 0.0]
angular_velocity: 
  x: 4.009021291830975
  y: 1.085594794740473
  z: -3.0037116426822412
angular_velocity_covariance: [0.0, 0.0, 0.0, 0.0, 0.0, 0.0, 0.0, 0.0, 0.0]
linear_acceleration: 
  x: -7.300000000000001
  y: 1.6
  z: 15.700000000000001
linear_acceleration_covariance: [0.0, 0.0, 0.0, 0.0, 0.0, 0.0, 0.0, 0.0, 0.0]
---
header: 
  seq: 8360
  stamp: 
    secs: 121
    nsecs: 225400000
  frame_id: ''
orientation: 
  x: 0.0
  y: 0.0
  z: 0.0
  w: 0.0
orientation_covariance: [0.0, 0.0, 0.0, 0.0, 0.0, 0.0, 0.0, 0.0, 0.0]
angular_velocity: 
  x: 4.009021291830975
  y: 1.085594794740473
  z: -3.0037116426822412
angular_velocity_covariance: [0.0, 0.0, 0.0, 0.0, 0.0, 0.0, 0.0, 0.0, 0.0]
linear_acceleration: 
  x: -6.300000000000001
  y: 2.0
  z: 10.700000000000001
linear_acceleration_covariance: [0.0, 0.0, 0.0, 0.0, 0.0, 0.0, 0.0, 0.0, 0.0]
---
header: 
  seq: 8361
  stamp: 
    secs: 121
    nsecs: 242400000
  frame_id: ''
orientation: 
  x: 0.0
  y: 0.0
  z: 0.0
  w: 0.0
orientation_covariance: [0.0, 0.0, 0.0, 0.0, 0.0, 0.0, 0.0, 0.0, 0.0]
angular_velocity: 
  x: 3.618067539384245
  y: -2.235766771804736
  z: -2.4312436480281012
angular_velocity_covariance: [0.0, 0.0, 0.0, 0.0, 0.0, 0.0, 0.0, 0.0, 0.0]
linear_acceleration: 
  x: -3.8000000000000003
  y: 2.5
  z: 6.0
linear_acceleration_covariance: [0.0, 0.0, 0.0, 0.0, 0.0, 0.0, 0.0, 0.0, 0.0]
---
header: 
  seq: 8362
  stamp: 
    secs: 121
    nsecs: 258900000
  frame_id: ''
orientation: 
  x: 0.0
  y: 0.0
  z: 0.0
  w: 0.0
orientation_covariance: [0.0, 0.0, 0.0, 0.0, 0.0, 0.0, 0.0, 0.0, 0.0]
angular_velocity: 
  x: 3.618067539384245
  y: -2.235766771804736
  z: -2.4312436480281012
angular_velocity_covariance: [0.0, 0.0, 0.0, 0.0, 0.0, 0.0, 0.0, 0.0, 0.0]
linear_acceleration: 
  x: -1.8
  y: 3.0
  z: 4.7
linear_acceleration_covariance: [0.0, 0.0, 0.0, 0.0, 0.0, 0.0, 0.0, 0.0, 0.0]
---
header: 
  seq: 8363
  stamp: 
    secs: 121
    nsecs: 276000000
  frame_id: ''
orientation: 
  x: 0.0
  y: 0.0
  z: 0.0
  w: 0.0
orientation_covariance: [0.0, 0.0, 0.0, 0.0, 0.0, 0.0, 0.0, 0.0, 0.0]
angular_velocity: 
  x: 2.5813419636996136
  y: -3.3580134808370907
  z: -2.6249751949994717
angular_velocity_covariance: [0.0, 0.0, 0.0, 0.0, 0.0, 0.0, 0.0, 0.0, 0.0]
linear_acceleration: 
  x: 1.5
  y: 2.1
  z: 6.0
linear_acceleration_covariance: [0.0, 0.0, 0.0, 0.0, 0.0, 0.0, 0.0, 0.0, 0.0]
---
header: 
  seq: 8364
  stamp: 
    secs: 121
    nsecs: 292600000
  frame_id: ''
orientation: 
  x: 0.0
  y: 0.0
  z: 0.0
  w: 0.0
orientation_covariance: [0.0, 0.0, 0.0, 0.0, 0.0, 0.0, 0.0, 0.0, 0.0]
angular_velocity: 
  x: 1.8814649336498872
  y: -3.3964107243809654
  z: -3.115412714809879
angular_velocity_covariance: [0.0, 0.0, 0.0, 0.0, 0.0, 0.0, 0.0, 0.0, 0.0]
linear_acceleration: 
  x: 3.6
  y: 0.30000000000000004
  z: 7.4
linear_acceleration_covariance: [0.0, 0.0, 0.0, 0.0, 0.0, 0.0, 0.0, 0.0, 0.0]
---
header: 
  seq: 8365
  stamp: 
    secs: 121
    nsecs: 308400000
  frame_id: ''
orientation: 
  x: 0.0
  y: 0.0
  z: 0.0
  w: 0.0
orientation_covariance: [0.0, 0.0, 0.0, 0.0, 0.0, 0.0, 0.0, 0.0, 0.0]
angular_velocity: 
  x: 1.5707963267948966
  y: -3.181735226385663
  z: -4.033455901358897
angular_velocity_covariance: [0.0, 0.0, 0.0, 0.0, 0.0, 0.0, 0.0, 0.0, 0.0]
linear_acceleration: 
  x: 3.6
  y: 0.30000000000000004
  z: 7.4
linear_acceleration_covariance: [0.0, 0.0, 0.0, 0.0, 0.0, 0.0, 0.0, 0.0, 0.0]
---
header: 
  seq: 8366
  stamp: 
    secs: 121
    nsecs: 325500000
  frame_id: ''
orientation: 
  x: 0.0
  y: 0.0
  z: 0.0
  w: 0.0
orientation_covariance: [0.0, 0.0, 0.0, 0.0, 0.0, 0.0, 0.0, 0.0, 0.0]
angular_velocity: 
  x: 0.9721483933608416
  y: -2.199114857512855
  z: -6.232570758871752
angular_velocity_covariance: [0.0, 0.0, 0.0, 0.0, 0.0, 0.0, 0.0, 0.0, 0.0]
linear_acceleration: 
  x: 2.3000000000000003
  y: -2.3000000000000003
  z: 5.9
linear_acceleration_covariance: [0.0, 0.0, 0.0, 0.0, 0.0, 0.0, 0.0, 0.0, 0.0]
---
header: 
  seq: 8367
  stamp: 
    secs: 121
    nsecs: 342400000
  frame_id: ''
orientation: 
  x: 0.0
  y: 0.0
  z: 0.0
  w: 0.0
orientation_covariance: [0.0, 0.0, 0.0, 0.0, 0.0, 0.0, 0.0, 0.0, 0.0]
angular_velocity: 
  x: 0.9721483933608416
  y: -2.199114857512855
  z: -6.232570758871752
angular_velocity_covariance: [0.0, 0.0, 0.0, 0.0, 0.0, 0.0, 0.0, 0.0, 0.0]
linear_acceleration: 
  x: 2.3000000000000003
  y: -2.3000000000000003
  z: 5.9
linear_acceleration_covariance: [0.0, 0.0, 0.0, 0.0, 0.0, 0.0, 0.0, 0.0, 0.0]
---
header: 
  seq: 8368
  stamp: 
    secs: 121
    nsecs: 359000000
  frame_id: ''
orientation: 
  x: 0.0
  y: 0.0
  z: 0.0
  w: 0.0
orientation_covariance: [0.0, 0.0, 0.0, 0.0, 0.0, 0.0, 0.0, 0.0, 0.0]
angular_velocity: 
  x: 0.9878563566287906
  y: 0.2478367537831948
  z: -7.164576579436724
angular_velocity_covariance: [0.0, 0.0, 0.0, 0.0, 0.0, 0.0, 0.0, 0.0, 0.0]
linear_acceleration: 
  x: -3.3000000000000003
  y: -0.9
  z: 4.9
linear_acceleration_covariance: [0.0, 0.0, 0.0, 0.0, 0.0, 0.0, 0.0, 0.0, 0.0]
---
header: 
  seq: 8369
  stamp: 
    secs: 121
    nsecs: 375200000
  frame_id: ''
orientation: 
  x: 0.0
  y: 0.0
  z: 0.0
  w: 0.0
orientation_covariance: [0.0, 0.0, 0.0, 0.0, 0.0, 0.0, 0.0, 0.0, 0.0]
angular_velocity: 
  x: 0.9878563566287906
  y: 0.2478367537831948
  z: -7.164576579436724
angular_velocity_covariance: [0.0, 0.0, 0.0, 0.0, 0.0, 0.0, 0.0, 0.0, 0.0]
linear_acceleration: 
  x: -3.3000000000000003
  y: -0.9
  z: 4.9
linear_acceleration_covariance: [0.0, 0.0, 0.0, 0.0, 0.0, 0.0, 0.0, 0.0, 0.0]
---
header: 
  seq: 8370
  stamp: 
    secs: 121
    nsecs: 391800000
  frame_id: ''
orientation: 
  x: 0.0
  y: 0.0
  z: 0.0
  w: 0.0
orientation_covariance: [0.0, 0.0, 0.0, 0.0, 0.0, 0.0, 0.0, 0.0, 0.0]
angular_velocity: 
  x: -0.5462880558742251
  y: 1.0733774899765127
  z: -7.133160652900826
angular_velocity_covariance: [0.0, 0.0, 0.0, 0.0, 0.0, 0.0, 0.0, 0.0, 0.0]
linear_acceleration: 
  x: -6.2
  y: -1.0
  z: -3.5
linear_acceleration_covariance: [0.0, 0.0, 0.0, 0.0, 0.0, 0.0, 0.0, 0.0, 0.0]
---
header: 
  seq: 8371
  stamp: 
    secs: 121
    nsecs: 409600000
  frame_id: ''
orientation: 
  x: 0.0
  y: 0.0
  z: 0.0
  w: 0.0
orientation_covariance: [0.0, 0.0, 0.0, 0.0, 0.0, 0.0, 0.0, 0.0, 0.0]
angular_velocity: 
  x: -0.5462880558742251
  y: 1.0733774899765127
  z: -7.133160652900826
angular_velocity_covariance: [0.0, 0.0, 0.0, 0.0, 0.0, 0.0, 0.0, 0.0, 0.0]
linear_acceleration: 
  x: -6.2
  y: -1.0
  z: -3.5
linear_acceleration_covariance: [0.0, 0.0, 0.0, 0.0, 0.0, 0.0, 0.0, 0.0, 0.0]
---
header: 
  seq: 8372
  stamp: 
    secs: 121
    nsecs: 426500000
  frame_id: ''
orientation: 
  x: 0.0
  y: 0.0
  z: 0.0
  w: 0.0
orientation_covariance: [0.0, 0.0, 0.0, 0.0, 0.0, 0.0, 0.0, 0.0, 0.0]
angular_velocity: 
  x: -2.199114857512855
  y: 3.0211649352021843
  z: -7.745771220350835
angular_velocity_covariance: [0.0, 0.0, 0.0, 0.0, 0.0, 0.0, 0.0, 0.0, 0.0]
linear_acceleration: 
  x: -5.2
  y: -4.9
  z: -1.0
linear_acceleration_covariance: [0.0, 0.0, 0.0, 0.0, 0.0, 0.0, 0.0, 0.0, 0.0]
---
header: 
  seq: 8373
  stamp: 
    secs: 121
    nsecs: 441900000
  frame_id: ''
orientation: 
  x: 0.0
  y: 0.0
  z: 0.0
  w: 0.0
orientation_covariance: [0.0, 0.0, 0.0, 0.0, 0.0, 0.0, 0.0, 0.0, 0.0]
angular_velocity: 
  x: -2.199114857512855
  y: 3.0211649352021843
  z: -7.745771220350835
angular_velocity_covariance: [0.0, 0.0, 0.0, 0.0, 0.0, 0.0, 0.0, 0.0, 0.0]
linear_acceleration: 
  x: -5.2
  y: -4.9
  z: -1.0
linear_acceleration_covariance: [0.0, 0.0, 0.0, 0.0, 0.0, 0.0, 0.0, 0.0, 0.0]
---
header: 
  seq: 8374
  stamp: 
    secs: 121
    nsecs: 458600000
  frame_id: ''
orientation: 
  x: 0.0
  y: 0.0
  z: 0.0
  w: 0.0
orientation_covariance: [0.0, 0.0, 0.0, 0.0, 0.0, 0.0, 0.0, 0.0, 0.0]
angular_velocity: 
  x: -3.431317309420852
  y: 4.513421445657337
  z: -8.822639368831338
angular_velocity_covariance: [0.0, 0.0, 0.0, 0.0, 0.0, 0.0, 0.0, 0.0, 0.0]
linear_acceleration: 
  x: -8.200000000000001
  y: -10.9
  z: -1.7000000000000002
linear_acceleration_covariance: [0.0, 0.0, 0.0, 0.0, 0.0, 0.0, 0.0, 0.0, 0.0]
---
header: 
  seq: 8375
  stamp: 
    secs: 121
    nsecs: 475100000
  frame_id: ''
orientation: 
  x: 0.0
  y: 0.0
  z: 0.0
  w: 0.0
orientation_covariance: [0.0, 0.0, 0.0, 0.0, 0.0, 0.0, 0.0, 0.0, 0.0]
angular_velocity: 
  x: -3.431317309420852
  y: 4.513421445657337
  z: -8.822639368831338
angular_velocity_covariance: [0.0, 0.0, 0.0, 0.0, 0.0, 0.0, 0.0, 0.0, 0.0]
linear_acceleration: 
  x: -11.9
  y: -12.700000000000001
  z: -1.1
linear_acceleration_covariance: [0.0, 0.0, 0.0, 0.0, 0.0, 0.0, 0.0, 0.0, 0.0]
---
header: 
  seq: 8376
  stamp: 
    secs: 121
    nsecs: 491900000
  frame_id: ''
orientation: 
  x: 0.0
  y: 0.0
  z: 0.0
  w: 0.0
orientation_covariance: [0.0, 0.0, 0.0, 0.0, 0.0, 0.0, 0.0, 0.0, 0.0]
angular_velocity: 
  x: -3.5779249665883754
  y: 6.113888369736135
  z: -9.005898940290743
angular_velocity_covariance: [0.0, 0.0, 0.0, 0.0, 0.0, 0.0, 0.0, 0.0, 0.0]
linear_acceleration: 
  x: -16.3
  y: -13.3
  z: -2.2
linear_acceleration_covariance: [0.0, 0.0, 0.0, 0.0, 0.0, 0.0, 0.0, 0.0, 0.0]
---
header: 
  seq: 8377
  stamp: 
    secs: 121
    nsecs: 508800000
  frame_id: ''
orientation: 
  x: 0.0
  y: 0.0
  z: 0.0
  w: 0.0
orientation_covariance: [0.0, 0.0, 0.0, 0.0, 0.0, 0.0, 0.0, 0.0, 0.0]
angular_velocity: 
  x: -3.5779249665883754
  y: 6.113888369736135
  z: -9.005898940290743
angular_velocity_covariance: [0.0, 0.0, 0.0, 0.0, 0.0, 0.0, 0.0, 0.0, 0.0]
linear_acceleration: 
  x: -19.3
  y: -13.3
  z: -4.1000000000000005
linear_acceleration_covariance: [0.0, 0.0, 0.0, 0.0, 0.0, 0.0, 0.0, 0.0, 0.0]
---
header: 
  seq: 8378
  stamp: 
    secs: 121
    nsecs: 525600000
  frame_id: ''
orientation: 
  x: 0.0
  y: 0.0
  z: 0.0
  w: 0.0
orientation_covariance: [0.0, 0.0, 0.0, 0.0, 0.0, 0.0, 0.0, 0.0, 0.0]
angular_velocity: 
  x: -3.916518841475276
  y: 6.178465552059928
  z: -7.698647330546989
angular_velocity_covariance: [0.0, 0.0, 0.0, 0.0, 0.0, 0.0, 0.0, 0.0, 0.0]
linear_acceleration: 
  x: -21.8
  y: -13.4
  z: -4.7
linear_acceleration_covariance: [0.0, 0.0, 0.0, 0.0, 0.0, 0.0, 0.0, 0.0, 0.0]
---
header: 
  seq: 8379
  stamp: 
    secs: 121
    nsecs: 544700000
  frame_id: ''
orientation: 
  x: 0.0
  y: 0.0
  z: 0.0
  w: 0.0
orientation_covariance: [0.0, 0.0, 0.0, 0.0, 0.0, 0.0, 0.0, 0.0, 0.0]
angular_velocity: 
  x: -3.916518841475276
  y: 6.178465552059928
  z: -7.698647330546989
angular_velocity_covariance: [0.0, 0.0, 0.0, 0.0, 0.0, 0.0, 0.0, 0.0, 0.0]
linear_acceleration: 
  x: -23.3
  y: -12.9
  z: -3.7
linear_acceleration_covariance: [0.0, 0.0, 0.0, 0.0, 0.0, 0.0, 0.0, 0.0, 0.0]
---
header: 
  seq: 8380
  stamp: 
    secs: 121
    nsecs: 558300000
  frame_id: ''
orientation: 
  x: 0.0
  y: 0.0
  z: 0.0
  w: 0.0
orientation_covariance: [0.0, 0.0, 0.0, 0.0, 0.0, 0.0, 0.0, 0.0, 0.0]
angular_velocity: 
  x: -4.201007509550351
  y: 5.7979837751251635
  z: -6.576400621514634
angular_velocity_covariance: [0.0, 0.0, 0.0, 0.0, 0.0, 0.0, 0.0, 0.0, 0.0]
linear_acceleration: 
  x: -23.3
  y: -12.9
  z: -3.7
linear_acceleration_covariance: [0.0, 0.0, 0.0, 0.0, 0.0, 0.0, 0.0, 0.0, 0.0]
---
header: 
  seq: 8381
  stamp: 
    secs: 121
    nsecs: 574900000
  frame_id: ''
orientation: 
  x: 0.0
  y: 0.0
  z: 0.0
  w: 0.0
orientation_covariance: [0.0, 0.0, 0.0, 0.0, 0.0, 0.0, 0.0, 0.0, 0.0]
angular_velocity: 
  x: -4.370304446993801
  y: 5.450663253978291
  z: -5.302310267558774
angular_velocity_covariance: [0.0, 0.0, 0.0, 0.0, 0.0, 0.0, 0.0, 0.0, 0.0]
linear_acceleration: 
  x: -20.700000000000003
  y: -10.700000000000001
  z: -1.5
linear_acceleration_covariance: [0.0, 0.0, 0.0, 0.0, 0.0, 0.0, 0.0, 0.0, 0.0]
---
header: 
  seq: 8382
  stamp: 
    secs: 121
    nsecs: 592600000
  frame_id: ''
orientation: 
  x: 0.0
  y: 0.0
  z: 0.0
  w: 0.0
orientation_covariance: [0.0, 0.0, 0.0, 0.0, 0.0, 0.0, 0.0, 0.0, 0.0]
angular_velocity: 
  x: -4.424409653805626
  y: 5.18013721991917
  z: -4.089306437422715
angular_velocity_covariance: [0.0, 0.0, 0.0, 0.0, 0.0, 0.0, 0.0, 0.0, 0.0]
linear_acceleration: 
  x: -19.5
  y: -9.3
  z: -1.1
linear_acceleration_covariance: [0.0, 0.0, 0.0, 0.0, 0.0, 0.0, 0.0, 0.0, 0.0]
---
header: 
  seq: 8383
  stamp: 
    secs: 121
    nsecs: 608400000
  frame_id: ''
orientation: 
  x: 0.0
  y: 0.0
  z: 0.0
  w: 0.0
orientation_covariance: [0.0, 0.0, 0.0, 0.0, 0.0, 0.0, 0.0, 0.0, 0.0]
angular_velocity: 
  x: -4.253367387110181
  y: 5.003858965467742
  z: -2.871066619530672
angular_velocity_covariance: [0.0, 0.0, 0.0, 0.0, 0.0, 0.0, 0.0, 0.0, 0.0]
linear_acceleration: 
  x: -19.5
  y: -7.5
  z: -1.5
linear_acceleration_covariance: [0.0, 0.0, 0.0, 0.0, 0.0, 0.0, 0.0, 0.0, 0.0]
---
header: 
  seq: 8384
  stamp: 
    secs: 121
    nsecs: 625300000
  frame_id: ''
orientation: 
  x: 0.0
  y: 0.0
  z: 0.0
  w: 0.0
orientation_covariance: [0.0, 0.0, 0.0, 0.0, 0.0, 0.0, 0.0, 0.0, 0.0]
angular_velocity: 
  x: -4.171336912266447
  y: 4.771730174952497
  z: -1.6929693744345
angular_velocity_covariance: [0.0, 0.0, 0.0, 0.0, 0.0, 0.0, 0.0, 0.0, 0.0]
linear_acceleration: 
  x: -19.5
  y: -7.5
  z: -1.5
linear_acceleration_covariance: [0.0, 0.0, 0.0, 0.0, 0.0, 0.0, 0.0, 0.0, 0.0]
---
header: 
  seq: 8385
  stamp: 
    secs: 121
    nsecs: 641900000
  frame_id: ''
orientation: 
  x: 0.0
  y: 0.0
  z: 0.0
  w: 0.0
orientation_covariance: [0.0, 0.0, 0.0, 0.0, 0.0, 0.0, 0.0, 0.0, 0.0]
angular_velocity: 
  x: -4.68795437085677
  y: 4.424409653805626
  z: 0.8848819307611251
angular_velocity_covariance: [0.0, 0.0, 0.0, 0.0, 0.0, 0.0, 0.0, 0.0, 0.0]
linear_acceleration: 
  x: -18.6
  y: -7.1000000000000005
  z: -8.5
linear_acceleration_covariance: [0.0, 0.0, 0.0, 0.0, 0.0, 0.0, 0.0, 0.0, 0.0]
---
header: 
  seq: 8386
  stamp: 
    secs: 121
    nsecs: 658500000
  frame_id: ''
orientation: 
  x: 0.0
  y: 0.0
  z: 0.0
  w: 0.0
orientation_covariance: [0.0, 0.0, 0.0, 0.0, 0.0, 0.0, 0.0, 0.0, 0.0]
angular_velocity: 
  x: -4.68795437085677
  y: 4.424409653805626
  z: 0.8848819307611251
angular_velocity_covariance: [0.0, 0.0, 0.0, 0.0, 0.0, 0.0, 0.0, 0.0, 0.0]
linear_acceleration: 
  x: -18.6
  y: -7.1000000000000005
  z: -8.5
linear_acceleration_covariance: [0.0, 0.0, 0.0, 0.0, 0.0, 0.0, 0.0, 0.0, 0.0]
---
header: 
  seq: 8387
  stamp: 
    secs: 121
    nsecs: 675200000
  frame_id: ''
orientation: 
  x: 0.0
  y: 0.0
  z: 0.0
  w: 0.0
orientation_covariance: [0.0, 0.0, 0.0, 0.0, 0.0, 0.0, 0.0, 0.0, 0.0]
angular_velocity: 
  x: -7.285004297824332
  y: 2.4137903555081577
  z: 2.6371924997634317
angular_velocity_covariance: [0.0, 0.0, 0.0, 0.0, 0.0, 0.0, 0.0, 0.0, 0.0]
linear_acceleration: 
  x: -18.2
  y: -12.9
  z: -4.9
linear_acceleration_covariance: [0.0, 0.0, 0.0, 0.0, 0.0, 0.0, 0.0, 0.0, 0.0]
---
header: 
  seq: 8388
  stamp: 
    secs: 121
    nsecs: 691700000
  frame_id: ''
orientation: 
  x: 0.0
  y: 0.0
  z: 0.0
  w: 0.0
orientation_covariance: [0.0, 0.0, 0.0, 0.0, 0.0, 0.0, 0.0, 0.0, 0.0]
angular_velocity: 
  x: -7.285004297824332
  y: 2.4137903555081577
  z: 2.6371924997634317
angular_velocity_covariance: [0.0, 0.0, 0.0, 0.0, 0.0, 0.0, 0.0, 0.0, 0.0]
linear_acceleration: 
  x: -18.2
  y: -12.9
  z: -4.9
linear_acceleration_covariance: [0.0, 0.0, 0.0, 0.0, 0.0, 0.0, 0.0, 0.0, 0.0]
---
header: 
  seq: 8389
  stamp: 
    secs: 121
    nsecs: 708400000
  frame_id: ''
orientation: 
  x: 0.0
  y: 0.0
  z: 0.0
  w: 0.0
orientation_covariance: [0.0, 0.0, 0.0, 0.0, 0.0, 0.0, 0.0, 0.0, 0.0]
angular_velocity: 
  x: -6.023131248632431
  y: 0.6265732014659643
  z: 4.565781323217166
angular_velocity_covariance: [0.0, 0.0, 0.0, 0.0, 0.0, 0.0, 0.0, 0.0, 0.0]
linear_acceleration: 
  x: -14.4
  y: -11.4
  z: 6.7
linear_acceleration_covariance: [0.0, 0.0, 0.0, 0.0, 0.0, 0.0, 0.0, 0.0, 0.0]
---
header: 
  seq: 8390
  stamp: 
    secs: 121
    nsecs: 729000000
  frame_id: ''
orientation: 
  x: 0.0
  y: 0.0
  z: 0.0
  w: 0.0
orientation_covariance: [0.0, 0.0, 0.0, 0.0, 0.0, 0.0, 0.0, 0.0, 0.0]
angular_velocity: 
  x: -6.023131248632431
  y: 0.6265732014659643
  z: 4.565781323217166
angular_velocity_covariance: [0.0, 0.0, 0.0, 0.0, 0.0, 0.0, 0.0, 0.0, 0.0]
linear_acceleration: 
  x: -14.4
  y: -11.4
  z: 6.7
linear_acceleration_covariance: [0.0, 0.0, 0.0, 0.0, 0.0, 0.0, 0.0, 0.0, 0.0]
---
header: 
  seq: 8391
  stamp: 
    secs: 121
    nsecs: 742100000
  frame_id: ''
orientation: 
  x: 0.0
  y: 0.0
  z: 0.0
  w: 0.0
orientation_covariance: [0.0, 0.0, 0.0, 0.0, 0.0, 0.0, 0.0, 0.0, 0.0]
angular_velocity: 
  x: -3.8484510006474966
  y: -0.5270894341022876
  z: 5.904448859496817
angular_velocity_covariance: [0.0, 0.0, 0.0, 0.0, 0.0, 0.0, 0.0, 0.0, 0.0]
linear_acceleration: 
  x: -12.9
  y: -7.2
  z: -2.2
linear_acceleration_covariance: [0.0, 0.0, 0.0, 0.0, 0.0, 0.0, 0.0, 0.0, 0.0]
---
header: 
  seq: 8392
  stamp: 
    secs: 121
    nsecs: 760000000
  frame_id: ''
orientation: 
  x: 0.0
  y: 0.0
  z: 0.0
  w: 0.0
orientation_covariance: [0.0, 0.0, 0.0, 0.0, 0.0, 0.0, 0.0, 0.0, 0.0]
angular_velocity: 
  x: -3.8484510006474966
  y: -0.5270894341022876
  z: 5.904448859496817
angular_velocity_covariance: [0.0, 0.0, 0.0, 0.0, 0.0, 0.0, 0.0, 0.0, 0.0]
linear_acceleration: 
  x: -12.9
  y: -7.2
  z: -2.2
linear_acceleration_covariance: [0.0, 0.0, 0.0, 0.0, 0.0, 0.0, 0.0, 0.0, 0.0]
---
header: 
  seq: 8393
  stamp: 
    secs: 121
    nsecs: 777100000
  frame_id: ''
orientation: 
  x: 0.0
  y: 0.0
  z: 0.0
  w: 0.0
orientation_covariance: [0.0, 0.0, 0.0, 0.0, 0.0, 0.0, 0.0, 0.0, 0.0]
angular_velocity: 
  x: -3.783873818323706
  y: -5.35292481586661
  z: 6.342526501747394
angular_velocity_covariance: [0.0, 0.0, 0.0, 0.0, 0.0, 0.0, 0.0, 0.0, 0.0]
linear_acceleration: 
  x: -4.4
  y: -7.6000000000000005
  z: -2.3000000000000003
linear_acceleration_covariance: [0.0, 0.0, 0.0, 0.0, 0.0, 0.0, 0.0, 0.0, 0.0]
---
header: 
  seq: 8394
  stamp: 
    secs: 121
    nsecs: 792900000
  frame_id: ''
orientation: 
  x: 0.0
  y: 0.0
  z: 0.0
  w: 0.0
orientation_covariance: [0.0, 0.0, 0.0, 0.0, 0.0, 0.0, 0.0, 0.0, 0.0]
angular_velocity: 
  x: -3.783873818323706
  y: -5.35292481586661
  z: 6.342526501747394
angular_velocity_covariance: [0.0, 0.0, 0.0, 0.0, 0.0, 0.0, 0.0, 0.0, 0.0]
linear_acceleration: 
  x: 1.5
  y: -6.5
  z: -1.8
linear_acceleration_covariance: [0.0, 0.0, 0.0, 0.0, 0.0, 0.0, 0.0, 0.0, 0.0]
---
header: 
  seq: 8395
  stamp: 
    secs: 121
    nsecs: 809200000
  frame_id: ''
orientation: 
  x: 0.0
  y: 0.0
  z: 0.0
  w: 0.0
orientation_covariance: [0.0, 0.0, 0.0, 0.0, 0.0, 0.0, 0.0, 0.0, 0.0]
angular_velocity: 
  x: -2.5499260371637154
  y: -9.330530181161686
  z: 4.173082241518442
angular_velocity_covariance: [0.0, 0.0, 0.0, 0.0, 0.0, 0.0, 0.0, 0.0, 0.0]
linear_acceleration: 
  x: 1.5
  y: -6.5
  z: -1.8
linear_acceleration_covariance: [0.0, 0.0, 0.0, 0.0, 0.0, 0.0, 0.0, 0.0, 0.0]
---
header: 
  seq: 8396
  stamp: 
    secs: 121
    nsecs: 825900000
  frame_id: ''
orientation: 
  x: 0.0
  y: 0.0
  z: 0.0
  w: 0.0
orientation_covariance: [0.0, 0.0, 0.0, 0.0, 0.0, 0.0, 0.0, 0.0, 0.0]
angular_velocity: 
  x: -2.5499260371637154
  y: -9.330530181161686
  z: 4.173082241518442
angular_velocity_covariance: [0.0, 0.0, 0.0, 0.0, 0.0, 0.0, 0.0, 0.0, 0.0]
linear_acceleration: 
  x: -3.1
  y: -2.7
  z: 0.5
linear_acceleration_covariance: [0.0, 0.0, 0.0, 0.0, 0.0, 0.0, 0.0, 0.0, 0.0]
---
header: 
  seq: 8397
  stamp: 
    secs: 121
    nsecs: 842000000
  frame_id: ''
orientation: 
  x: 0.0
  y: 0.0
  z: 0.0
  w: 0.0
orientation_covariance: [0.0, 0.0, 0.0, 0.0, 0.0, 0.0, 0.0, 0.0, 0.0]
angular_velocity: 
  x: -1.509709802975095
  y: -9.175195877734193
  z: 3.122394031817856
angular_velocity_covariance: [0.0, 0.0, 0.0, 0.0, 0.0, 0.0, 0.0, 0.0, 0.0]
linear_acceleration: 
  x: -7.7
  y: -1.3
  z: 3.4000000000000004
linear_acceleration_covariance: [0.0, 0.0, 0.0, 0.0, 0.0, 0.0, 0.0, 0.0, 0.0]
---
header: 
  seq: 8398
  stamp: 
    secs: 121
    nsecs: 859000000
  frame_id: ''
orientation: 
  x: 0.0
  y: 0.0
  z: 0.0
  w: 0.0
orientation_covariance: [0.0, 0.0, 0.0, 0.0, 0.0, 0.0, 0.0, 0.0, 0.0]
angular_velocity: 
  x: -0.1291543646475804
  y: -8.506734774220362
  z: 2.5830872929516078
angular_velocity_covariance: [0.0, 0.0, 0.0, 0.0, 0.0, 0.0, 0.0, 0.0, 0.0]
linear_acceleration: 
  x: -8.3
  y: -0.4
  z: -1.3
linear_acceleration_covariance: [0.0, 0.0, 0.0, 0.0, 0.0, 0.0, 0.0, 0.0, 0.0]
---
header: 
  seq: 8399
  stamp: 
    secs: 121
    nsecs: 877400000
  frame_id: ''
orientation: 
  x: 0.0
  y: 0.0
  z: 0.0
  w: 0.0
orientation_covariance: [0.0, 0.0, 0.0, 0.0, 0.0, 0.0, 0.0, 0.0, 0.0]
angular_velocity: 
  x: 1.1519173063162575
  y: -7.696902001294993
  z: 2.028072590817411
angular_velocity_covariance: [0.0, 0.0, 0.0, 0.0, 0.0, 0.0, 0.0, 0.0, 0.0]
linear_acceleration: 
  x: -8.3
  y: -0.4
  z: -1.3
linear_acceleration_covariance: [0.0, 0.0, 0.0, 0.0, 0.0, 0.0, 0.0, 0.0, 0.0]
---
header: 
  seq: 8400
  stamp: 
    secs: 121
    nsecs: 893900000
  frame_id: ''
orientation: 
  x: 0.0
  y: 0.0
  z: 0.0
  w: 0.0
orientation_covariance: [0.0, 0.0, 0.0, 0.0, 0.0, 0.0, 0.0, 0.0, 0.0]
angular_velocity: 
  x: 0.8918632477691024
  y: -7.613126197199266
  z: 1.3753194505715318
angular_velocity_covariance: [0.0, 0.0, 0.0, 0.0, 0.0, 0.0, 0.0, 0.0, 0.0]
linear_acceleration: 
  x: -5.6000000000000005
  y: 1.0
  z: -8.0
linear_acceleration_covariance: [0.0, 0.0, 0.0, 0.0, 0.0, 0.0, 0.0, 0.0, 0.0]
---
header: 
  seq: 8401
  stamp: 
    secs: 121
    nsecs: 909000000
  frame_id: ''
orientation: 
  x: 0.0
  y: 0.0
  z: 0.0
  w: 0.0
orientation_covariance: [0.0, 0.0, 0.0, 0.0, 0.0, 0.0, 0.0, 0.0, 0.0]
angular_velocity: 
  x: -0.32288591161895097
  y: -8.016297254409956
  z: 0.640535835481919
angular_velocity_covariance: [0.0, 0.0, 0.0, 0.0, 0.0, 0.0, 0.0, 0.0, 0.0]
linear_acceleration: 
  x: -5.6000000000000005
  y: 1.0
  z: -8.0
linear_acceleration_covariance: [0.0, 0.0, 0.0, 0.0, 0.0, 0.0, 0.0, 0.0, 0.0]
---
header: 
  seq: 8402
  stamp: 
    secs: 121
    nsecs: 925400000
  frame_id: ''
orientation: 
  x: 0.0
  y: 0.0
  z: 0.0
  w: 0.0
orientation_covariance: [0.0, 0.0, 0.0, 0.0, 0.0, 0.0, 0.0, 0.0, 0.0]
angular_velocity: 
  x: -1.7715091907742448
  y: -7.541567697867499
  z: -1.2915436464758039
angular_velocity_covariance: [0.0, 0.0, 0.0, 0.0, 0.0, 0.0, 0.0, 0.0, 0.0]
linear_acceleration: 
  x: -2.6
  y: -0.5
  z: 2.5
linear_acceleration_covariance: [0.0, 0.0, 0.0, 0.0, 0.0, 0.0, 0.0, 0.0, 0.0]
---
header: 
  seq: 8403
  stamp: 
    secs: 121
    nsecs: 943500000
  frame_id: ''
orientation: 
  x: 0.0
  y: 0.0
  z: 0.0
  w: 0.0
orientation_covariance: [0.0, 0.0, 0.0, 0.0, 0.0, 0.0, 0.0, 0.0, 0.0]
angular_velocity: 
  x: -1.3945180723434694
  y: -6.46993553714298
  z: -2.5673793296836585
angular_velocity_covariance: [0.0, 0.0, 0.0, 0.0, 0.0, 0.0, 0.0, 0.0, 0.0]
linear_acceleration: 
  x: -1.2000000000000002
  y: -2.3000000000000003
  z: 8.4
linear_acceleration_covariance: [0.0, 0.0, 0.0, 0.0, 0.0, 0.0, 0.0, 0.0, 0.0]
---
header: 
  seq: 8404
  stamp: 
    secs: 121
    nsecs: 959800000
  frame_id: ''
orientation: 
  x: 0.0
  y: 0.0
  z: 0.0
  w: 0.0
orientation_covariance: [0.0, 0.0, 0.0, 0.0, 0.0, 0.0, 0.0, 0.0, 0.0]
angular_velocity: 
  x: -0.5113814708343386
  y: -4.916592502868027
  z: -4.028219913602912
angular_velocity_covariance: [0.0, 0.0, 0.0, 0.0, 0.0, 0.0, 0.0, 0.0, 0.0]
linear_acceleration: 
  x: -0.8
  y: -4.3
  z: 10.100000000000001
linear_acceleration_covariance: [0.0, 0.0, 0.0, 0.0, 0.0, 0.0, 0.0, 0.0, 0.0]
---
header: 
  seq: 8405
  stamp: 
    secs: 121
    nsecs: 975100000
  frame_id: ''
orientation: 
  x: 0.0
  y: 0.0
  z: 0.0
  w: 0.0
orientation_covariance: [0.0, 0.0, 0.0, 0.0, 0.0, 0.0, 0.0, 0.0, 0.0]
angular_velocity: 
  x: -0.5113814708343386
  y: -4.916592502868027
  z: -4.028219913602912
angular_velocity_covariance: [0.0, 0.0, 0.0, 0.0, 0.0, 0.0, 0.0, 0.0, 0.0]
linear_acceleration: 
  x: -0.8
  y: -4.3
  z: 10.100000000000001
linear_acceleration_covariance: [0.0, 0.0, 0.0, 0.0, 0.0, 0.0, 0.0, 0.0, 0.0]
---
header: 
  seq: 8406
  stamp: 
    secs: 121
    nsecs: 992100000
  frame_id: ''
orientation: 
  x: 0.0
  y: 0.0
  z: 0.0
  w: 0.0
orientation_covariance: [0.0, 0.0, 0.0, 0.0, 0.0, 0.0, 0.0, 0.0, 0.0]
angular_velocity: 
  x: 0.8325220532012952
  y: -1.1274826967883371
  z: -6.1418136377680455
angular_velocity_covariance: [0.0, 0.0, 0.0, 0.0, 0.0, 0.0, 0.0, 0.0, 0.0]
linear_acceleration: 
  x: -5.7
  y: -4.3
  z: 3.8000000000000003
linear_acceleration_covariance: [0.0, 0.0, 0.0, 0.0, 0.0, 0.0, 0.0, 0.0, 0.0]
---
header: 
  seq: 8407
  stamp: 
    secs: 122
    nsecs:   9900000
  frame_id: ''
orientation: 
  x: 0.0
  y: 0.0
  z: 0.0
  w: 0.0
orientation_covariance: [0.0, 0.0, 0.0, 0.0, 0.0, 0.0, 0.0, 0.0, 0.0]
angular_velocity: 
  x: 0.8325220532012952
  y: -1.1274826967883371
  z: -6.1418136377680455
angular_velocity_covariance: [0.0, 0.0, 0.0, 0.0, 0.0, 0.0, 0.0, 0.0, 0.0]
linear_acceleration: 
  x: -5.7
  y: -4.3
  z: 3.8000000000000003
linear_acceleration_covariance: [0.0, 0.0, 0.0, 0.0, 0.0, 0.0, 0.0, 0.0, 0.0]
---
header: 
  seq: 8408
  stamp: 
    secs: 122
    nsecs:  26500000
  frame_id: ''
orientation: 
  x: 0.0
  y: 0.0
  z: 0.0
  w: 0.0
orientation_covariance: [0.0, 0.0, 0.0, 0.0, 0.0, 0.0, 0.0, 0.0, 0.0]
angular_velocity: 
  x: -0.26878070480712674
  y: 2.178170906488923
  z: -6.2360614173757405
angular_velocity_covariance: [0.0, 0.0, 0.0, 0.0, 0.0, 0.0, 0.0, 0.0, 0.0]
linear_acceleration: 
  x: -11.600000000000001
  y: -2.0
  z: -9.1
linear_acceleration_covariance: [0.0, 0.0, 0.0, 0.0, 0.0, 0.0, 0.0, 0.0, 0.0]
---
header: 
  seq: 8409
  stamp: 
    secs: 122
    nsecs:  43200000
  frame_id: ''
orientation: 
  x: 0.0
  y: 0.0
  z: 0.0
  w: 0.0
orientation_covariance: [0.0, 0.0, 0.0, 0.0, 0.0, 0.0, 0.0, 0.0, 0.0]
angular_velocity: 
  x: -0.26878070480712674
  y: 2.178170906488923
  z: -6.2360614173757405
angular_velocity_covariance: [0.0, 0.0, 0.0, 0.0, 0.0, 0.0, 0.0, 0.0, 0.0]
linear_acceleration: 
  x: -11.600000000000001
  y: -2.0
  z: -9.1
linear_acceleration_covariance: [0.0, 0.0, 0.0, 0.0, 0.0, 0.0, 0.0, 0.0, 0.0]
---
header: 
  seq: 8410
  stamp: 
    secs: 122
    nsecs:  58500000
  frame_id: ''
orientation: 
  x: 0.0
  y: 0.0
  z: 0.0
  w: 0.0
orientation_covariance: [0.0, 0.0, 0.0, 0.0, 0.0, 0.0, 0.0, 0.0, 0.0]
angular_velocity: 
  x: -3.0421088862261167
  y: 4.482005519121438
  z: -6.302383928951524
angular_velocity_covariance: [0.0, 0.0, 0.0, 0.0, 0.0, 0.0, 0.0, 0.0, 0.0]
linear_acceleration: 
  x: -10.9
  y: -8.6
  z: -5.1000000000000005
linear_acceleration_covariance: [0.0, 0.0, 0.0, 0.0, 0.0, 0.0, 0.0, 0.0, 0.0]
---
header: 
  seq: 8411
  stamp: 
    secs: 122
    nsecs:  76000000
  frame_id: ''
orientation: 
  x: 0.0
  y: 0.0
  z: 0.0
  w: 0.0
orientation_covariance: [0.0, 0.0, 0.0, 0.0, 0.0, 0.0, 0.0, 0.0, 0.0]
angular_velocity: 
  x: -3.0421088862261167
  y: 4.482005519121438
  z: -6.302383928951524
angular_velocity_covariance: [0.0, 0.0, 0.0, 0.0, 0.0, 0.0, 0.0, 0.0, 0.0]
linear_acceleration: 
  x: -11.4
  y: -11.5
  z: 1.1
linear_acceleration_covariance: [0.0, 0.0, 0.0, 0.0, 0.0, 0.0, 0.0, 0.0, 0.0]
---
header: 
  seq: 8412
  stamp: 
    secs: 122
    nsecs:  92000000
  frame_id: ''
orientation: 
  x: 0.0
  y: 0.0
  z: 0.0
  w: 0.0
orientation_covariance: [0.0, 0.0, 0.0, 0.0, 0.0, 0.0, 0.0, 0.0, 0.0]
angular_velocity: 
  x: -2.3474678439323733
  y: 5.859070298944965
  z: -6.834709350809794
angular_velocity_covariance: [0.0, 0.0, 0.0, 0.0, 0.0, 0.0, 0.0, 0.0, 0.0]
linear_acceleration: 
  x: -13.8
  y: -12.200000000000001
  z: 3.5
linear_acceleration_covariance: [0.0, 0.0, 0.0, 0.0, 0.0, 0.0, 0.0, 0.0, 0.0]
---
header: 
  seq: 8413
  stamp: 
    secs: 122
    nsecs: 108500000
  frame_id: ''
orientation: 
  x: 0.0
  y: 0.0
  z: 0.0
  w: 0.0
orientation_covariance: [0.0, 0.0, 0.0, 0.0, 0.0, 0.0, 0.0, 0.0, 0.0]
angular_velocity: 
  x: -2.3474678439323733
  y: 5.859070298944965
  z: -6.834709350809794
angular_velocity_covariance: [0.0, 0.0, 0.0, 0.0, 0.0, 0.0, 0.0, 0.0, 0.0]
linear_acceleration: 
  x: -15.3
  y: -11.4
  z: -1.3
linear_acceleration_covariance: [0.0, 0.0, 0.0, 0.0, 0.0, 0.0, 0.0, 0.0, 0.0]
---
header: 
  seq: 8414
  stamp: 
    secs: 122
    nsecs: 125200000
  frame_id: ''
orientation: 
  x: 0.0
  y: 0.0
  z: 0.0
  w: 0.0
orientation_covariance: [0.0, 0.0, 0.0, 0.0, 0.0, 0.0, 0.0, 0.0, 0.0]
angular_velocity: 
  x: -0.9494591130849153
  y: 6.988298324985295
  z: -6.239552075879729
angular_velocity_covariance: [0.0, 0.0, 0.0, 0.0, 0.0, 0.0, 0.0, 0.0, 0.0]
linear_acceleration: 
  x: -17.2
  y: -10.3
  z: -7.7
linear_acceleration_covariance: [0.0, 0.0, 0.0, 0.0, 0.0, 0.0, 0.0, 0.0, 0.0]
---
header: 
  seq: 8415
  stamp: 
    secs: 122
    nsecs: 141600000
  frame_id: ''
orientation: 
  x: 0.0
  y: 0.0
  z: 0.0
  w: 0.0
orientation_covariance: [0.0, 0.0, 0.0, 0.0, 0.0, 0.0, 0.0, 0.0, 0.0]
angular_velocity: 
  x: -0.9494591130849153
  y: 6.988298324985295
  z: -6.239552075879729
angular_velocity_covariance: [0.0, 0.0, 0.0, 0.0, 0.0, 0.0, 0.0, 0.0, 0.0]
linear_acceleration: 
  x: -18.2
  y: -10.600000000000001
  z: -12.8
linear_acceleration_covariance: [0.0, 0.0, 0.0, 0.0, 0.0, 0.0, 0.0, 0.0, 0.0]
---
header: 
  seq: 8416
  stamp: 
    secs: 122
    nsecs: 158500000
  frame_id: ''
orientation: 
  x: 0.0
  y: 0.0
  z: 0.0
  w: 0.0
orientation_covariance: [0.0, 0.0, 0.0, 0.0, 0.0, 0.0, 0.0, 0.0, 0.0]
angular_velocity: 
  x: -1.5009831567151237
  y: 7.150613945420768
  z: -5.504768460790116
angular_velocity_covariance: [0.0, 0.0, 0.0, 0.0, 0.0, 0.0, 0.0, 0.0, 0.0]
linear_acceleration: 
  x: -18.2
  y: -10.600000000000001
  z: -12.8
linear_acceleration_covariance: [0.0, 0.0, 0.0, 0.0, 0.0, 0.0, 0.0, 0.0, 0.0]
---
header: 
  seq: 8417
  stamp: 
    secs: 122
    nsecs: 175100000
  frame_id: ''
orientation: 
  x: 0.0
  y: 0.0
  z: 0.0
  w: 0.0
orientation_covariance: [0.0, 0.0, 0.0, 0.0, 0.0, 0.0, 0.0, 0.0, 0.0]
angular_velocity: 
  x: -2.6965336943312392
  y: 6.410594342575172
  z: -4.705407663376713
angular_velocity_covariance: [0.0, 0.0, 0.0, 0.0, 0.0, 0.0, 0.0, 0.0, 0.0]
linear_acceleration: 
  x: -21.3
  y: -10.100000000000001
  z: -8.0
linear_acceleration_covariance: [0.0, 0.0, 0.0, 0.0, 0.0, 0.0, 0.0, 0.0, 0.0]
---
header: 
  seq: 8418
  stamp: 
    secs: 122
    nsecs: 191800000
  frame_id: ''
orientation: 
  x: 0.0
  y: 0.0
  z: 0.0
  w: 0.0
orientation_covariance: [0.0, 0.0, 0.0, 0.0, 0.0, 0.0, 0.0, 0.0, 0.0]
angular_velocity: 
  x: -3.534291735288517
  y: 5.803219762881146
  z: -3.511602455012591
angular_velocity_covariance: [0.0, 0.0, 0.0, 0.0, 0.0, 0.0, 0.0, 0.0, 0.0]
linear_acceleration: 
  x: -21.3
  y: -10.100000000000001
  z: -8.0
linear_acceleration_covariance: [0.0, 0.0, 0.0, 0.0, 0.0, 0.0, 0.0, 0.0, 0.0]
---
header: 
  seq: 8419
  stamp: 
    secs: 122
    nsecs: 208600000
  frame_id: ''
orientation: 
  x: 0.0
  y: 0.0
  z: 0.0
  w: 0.0
orientation_covariance: [0.0, 0.0, 0.0, 0.0, 0.0, 0.0, 0.0, 0.0, 0.0]
angular_velocity: 
  x: -3.8327430373795477
  y: 5.110324049839397
  z: -2.0210912738094335
angular_velocity_covariance: [0.0, 0.0, 0.0, 0.0, 0.0, 0.0, 0.0, 0.0, 0.0]
linear_acceleration: 
  x: -18.6
  y: -8.0
  z: -4.3
linear_acceleration_covariance: [0.0, 0.0, 0.0, 0.0, 0.0, 0.0, 0.0, 0.0, 0.0]
---
header: 
  seq: 8420
  stamp: 
    secs: 122
    nsecs: 225500000
  frame_id: ''
orientation: 
  x: 0.0
  y: 0.0
  z: 0.0
  w: 0.0
orientation_covariance: [0.0, 0.0, 0.0, 0.0, 0.0, 0.0, 0.0, 0.0, 0.0]
angular_velocity: 
  x: -4.092797095926703
  y: 4.122467693210607
  z: -0.5654866776461629
angular_velocity_covariance: [0.0, 0.0, 0.0, 0.0, 0.0, 0.0, 0.0, 0.0, 0.0]
linear_acceleration: 
  x: -18.6
  y: -8.0
  z: -4.3
linear_acceleration_covariance: [0.0, 0.0, 0.0, 0.0, 0.0, 0.0, 0.0, 0.0, 0.0]
---
header: 
  seq: 8421
  stamp: 
    secs: 122
    nsecs: 241900000
  frame_id: ''
orientation: 
  x: 0.0
  y: 0.0
  z: 0.0
  w: 0.0
orientation_covariance: [0.0, 0.0, 0.0, 0.0, 0.0, 0.0, 0.0, 0.0, 0.0]
angular_velocity: 
  x: -5.1574479396432436
  y: 3.202679177409595
  z: 0.7312929565856242
angular_velocity_covariance: [0.0, 0.0, 0.0, 0.0, 0.0, 0.0, 0.0, 0.0, 0.0]
linear_acceleration: 
  x: -8.9
  y: -9.9
  z: -7.7
linear_acceleration_covariance: [0.0, 0.0, 0.0, 0.0, 0.0, 0.0, 0.0, 0.0, 0.0]
---
header: 
  seq: 8422
  stamp: 
    secs: 122
    nsecs: 258400000
  frame_id: ''
orientation: 
  x: 0.0
  y: 0.0
  z: 0.0
  w: 0.0
orientation_covariance: [0.0, 0.0, 0.0, 0.0, 0.0, 0.0, 0.0, 0.0, 0.0]
angular_velocity: 
  x: -5.1574479396432436
  y: 3.202679177409595
  z: 0.7312929565856242
angular_velocity_covariance: [0.0, 0.0, 0.0, 0.0, 0.0, 0.0, 0.0, 0.0, 0.0]
linear_acceleration: 
  x: -8.9
  y: -9.9
  z: -7.7
linear_acceleration_covariance: [0.0, 0.0, 0.0, 0.0, 0.0, 0.0, 0.0, 0.0, 0.0]
---
header: 
  seq: 8423
  stamp: 
    secs: 122
    nsecs: 276200000
  frame_id: ''
orientation: 
  x: 0.0
  y: 0.0
  z: 0.0
  w: 0.0
orientation_covariance: [0.0, 0.0, 0.0, 0.0, 0.0, 0.0, 0.0, 0.0, 0.0]
angular_velocity: 
  x: -5.92190215201676
  y: 3.359758810089085
  z: -0.23561944901923448
angular_velocity_covariance: [0.0, 0.0, 0.0, 0.0, 0.0, 0.0, 0.0, 0.0, 0.0]
linear_acceleration: 
  x: -7.4
  y: -13.3
  z: 2.0
linear_acceleration_covariance: [0.0, 0.0, 0.0, 0.0, 0.0, 0.0, 0.0, 0.0, 0.0]
---
header: 
  seq: 8424
  stamp: 
    secs: 122
    nsecs: 292100000
  frame_id: ''
orientation: 
  x: 0.0
  y: 0.0
  z: 0.0
  w: 0.0
orientation_covariance: [0.0, 0.0, 0.0, 0.0, 0.0, 0.0, 0.0, 0.0, 0.0]
angular_velocity: 
  x: -5.92190215201676
  y: 3.359758810089085
  z: -0.23561944901923448
angular_velocity_covariance: [0.0, 0.0, 0.0, 0.0, 0.0, 0.0, 0.0, 0.0, 0.0]
linear_acceleration: 
  x: -7.4
  y: -13.3
  z: 2.0
linear_acceleration_covariance: [0.0, 0.0, 0.0, 0.0, 0.0, 0.0, 0.0, 0.0, 0.0]
---
header: 
  seq: 8425
  stamp: 
    secs: 122
    nsecs: 310200000
  frame_id: ''
orientation: 
  x: 0.0
  y: 0.0
  z: 0.0
  w: 0.0
orientation_covariance: [0.0, 0.0, 0.0, 0.0, 0.0, 0.0, 0.0, 0.0, 0.0]
angular_velocity: 
  x: -2.1362830044410592
  y: 0.17627825445142728
  z: -0.7557275661135447
angular_velocity_covariance: [0.0, 0.0, 0.0, 0.0, 0.0, 0.0, 0.0, 0.0, 0.0]
linear_acceleration: 
  x: -1.9000000000000001
  y: -7.4
  z: 15.700000000000001
linear_acceleration_covariance: [0.0, 0.0, 0.0, 0.0, 0.0, 0.0, 0.0, 0.0, 0.0]
---
header: 
  seq: 8426
  stamp: 
    secs: 122
    nsecs: 325700000
  frame_id: ''
orientation: 
  x: 0.0
  y: 0.0
  z: 0.0
  w: 0.0
orientation_covariance: [0.0, 0.0, 0.0, 0.0, 0.0, 0.0, 0.0, 0.0, 0.0]
angular_velocity: 
  x: -2.1362830044410592
  y: 0.17627825445142728
  z: -0.7557275661135447
angular_velocity_covariance: [0.0, 0.0, 0.0, 0.0, 0.0, 0.0, 0.0, 0.0, 0.0]
linear_acceleration: 
  x: -1.9000000000000001
  y: -7.4
  z: 15.700000000000001
linear_acceleration_covariance: [0.0, 0.0, 0.0, 0.0, 0.0, 0.0, 0.0, 0.0, 0.0]
---
header: 
  seq: 8427
  stamp: 
    secs: 122
    nsecs: 344000000
  frame_id: ''
orientation: 
  x: 0.0
  y: 0.0
  z: 0.0
  w: 0.0
orientation_covariance: [0.0, 0.0, 0.0, 0.0, 0.0, 0.0, 0.0, 0.0, 0.0]
angular_velocity: 
  x: 2.022836603061428
  y: -2.1537362969610028
  z: -2.8134707542148596
angular_velocity_covariance: [0.0, 0.0, 0.0, 0.0, 0.0, 0.0, 0.0, 0.0, 0.0]
linear_acceleration: 
  x: 1.0
  y: -8.5
  z: 8.8
linear_acceleration_covariance: [0.0, 0.0, 0.0, 0.0, 0.0, 0.0, 0.0, 0.0, 0.0]
---
header: 
  seq: 8428
  stamp: 
    secs: 122
    nsecs: 358300000
  frame_id: ''
