header: 
  seq: 1
  stamp: 
    secs: 22079
    nsecs: 647100000
  frame_id: ''
orientation: 
  x: 0.0
  y: 0.0
  z: 0.0
  w: 0.0
orientation_covariance: [0.0, 0.0, 0.0, 0.0, 0.0, 0.0, 0.0, 0.0, 0.0]
angular_velocity: 
  x: 4.347615166717875
  y: 3.1258846903218442
  z: 0.7243116395776468
angular_velocity_covariance: [0.0, 0.0, 0.0, 0.0, 0.0, 0.0, 0.0, 0.0, 0.0]
linear_acceleration: 
  x: 3.8000000000000003
  y: 2.0
  z: 8.4
linear_acceleration_covariance: [0.0, 0.0, 0.0, 0.0, 0.0, 0.0, 0.0, 0.0, 0.0]
---
header: 
  seq: 2
  stamp: 
    secs: 22079
    nsecs: 663800000
  frame_id: ''
orientation: 
  x: 0.0
  y: 0.0
  z: 0.0
  w: 0.0
orientation_covariance: [0.0, 0.0, 0.0, 0.0, 0.0, 0.0, 0.0, 0.0, 0.0]
angular_velocity: 
  x: 4.134684997974567
  y: 2.1886428820008894
  z: 0.4590215932745087
angular_velocity_covariance: [0.0, 0.0, 0.0, 0.0, 0.0, 0.0, 0.0, 0.0, 0.0]
linear_acceleration: 
  x: 4.800000000000001
  y: 2.9000000000000004
  z: 7.800000000000001
linear_acceleration_covariance: [0.0, 0.0, 0.0, 0.0, 0.0, 0.0, 0.0, 0.0, 0.0]
---
header: 
  seq: 3
  stamp: 
    secs: 22079
    nsecs: 697100000
  frame_id: ''
orientation: 
  x: 0.0
  y: 0.0
  z: 0.0
  w: 0.0
orientation_covariance: [0.0, 0.0, 0.0, 0.0, 0.0, 0.0, 0.0, 0.0, 0.0]
angular_velocity: 
  x: 3.876376268679406
  y: 1.5742869852988852
  z: -0.03316125578789226
angular_velocity_covariance: [0.0, 0.0, 0.0, 0.0, 0.0, 0.0, 0.0, 0.0, 0.0]
linear_acceleration: 
  x: 5.800000000000001
  y: 3.9000000000000004
  z: 5.5
linear_acceleration_covariance: [0.0, 0.0, 0.0, 0.0, 0.0, 0.0, 0.0, 0.0, 0.0]
---
header: 
  seq: 4
  stamp: 
    secs: 22079
    nsecs: 713800000
  frame_id: ''
orientation: 
  x: 0.0
  y: 0.0
  z: 0.0
  w: 0.0
orientation_covariance: [0.0, 0.0, 0.0, 0.0, 0.0, 0.0, 0.0, 0.0, 0.0]
angular_velocity: 
  x: 3.6302848441482056
  y: 1.403244718603441
  z: -0.7504915783575618
angular_velocity_covariance: [0.0, 0.0, 0.0, 0.0, 0.0, 0.0, 0.0, 0.0, 0.0]
linear_acceleration: 
  x: 5.300000000000001
  y: 4.800000000000001
  z: 4.9
linear_acceleration_covariance: [0.0, 0.0, 0.0, 0.0, 0.0, 0.0, 0.0, 0.0, 0.0]
---
header: 
  seq: 5
  stamp: 
    secs: 22079
    nsecs: 747100000
  frame_id: ''
orientation: 
  x: 0.0
  y: 0.0
  z: 0.0
  w: 0.0
orientation_covariance: [0.0, 0.0, 0.0, 0.0, 0.0, 0.0, 0.0, 0.0, 0.0]
angular_velocity: 
  x: 2.5446900494077327
  y: 1.848303677861995
  z: -2.378883770468271
angular_velocity_covariance: [0.0, 0.0, 0.0, 0.0, 0.0, 0.0, 0.0, 0.0, 0.0]
linear_acceleration: 
  x: 0.1
  y: 7.0
  z: 5.800000000000001
linear_acceleration_covariance: [0.0, 0.0, 0.0, 0.0, 0.0, 0.0, 0.0, 0.0, 0.0]
---
header: 
  seq: 6
  stamp: 
    secs: 22079
    nsecs: 763800000
  frame_id: ''
orientation: 
  x: 0.0
  y: 0.0
  z: 0.0
  w: 0.0
orientation_covariance: [0.0, 0.0, 0.0, 0.0, 0.0, 0.0, 0.0, 0.0, 0.0]
angular_velocity: 
  x: 2.059488517353309
  y: 2.9513517651224115
  z: -2.7227136331111543
angular_velocity_covariance: [0.0, 0.0, 0.0, 0.0, 0.0, 0.0, 0.0, 0.0, 0.0]
linear_acceleration: 
  x: -5.1000000000000005
  y: 8.9
  z: 4.7
linear_acceleration_covariance: [0.0, 0.0, 0.0, 0.0, 0.0, 0.0, 0.0, 0.0, 0.0]
---
header: 
  seq: 7
  stamp: 
    secs: 22079
    nsecs: 780500000
  frame_id: ''
orientation: 
  x: 0.0
  y: 0.0
  z: 0.0
  w: 0.0
orientation_covariance: [0.0, 0.0, 0.0, 0.0, 0.0, 0.0, 0.0, 0.0, 0.0]
angular_velocity: 
  x: 1.403244718603441
  y: 2.998475654926258
  z: -1.6982053621904827
angular_velocity_covariance: [0.0, 0.0, 0.0, 0.0, 0.0, 0.0, 0.0, 0.0, 0.0]
linear_acceleration: 
  x: -13.200000000000001
  y: 11.8
  z: 1.3
linear_acceleration_covariance: [0.0, 0.0, 0.0, 0.0, 0.0, 0.0, 0.0, 0.0, 0.0]
---
header: 
  seq: 8
  stamp: 
    secs: 22079
    nsecs: 813700000
  frame_id: ''
orientation: 
  x: 0.0
  y: 0.0
  z: 0.0
  w: 0.0
orientation_covariance: [0.0, 0.0, 0.0, 0.0, 0.0, 0.0, 0.0, 0.0, 0.0]
angular_velocity: 
  x: 0.003490658503988659
  y: 1.8849555921538759
  z: 0.33335788713091696
angular_velocity_covariance: [0.0, 0.0, 0.0, 0.0, 0.0, 0.0, 0.0, 0.0, 0.0]
linear_acceleration: 
  x: -20.1
  y: 12.5
  z: 3.3000000000000003
linear_acceleration_covariance: [0.0, 0.0, 0.0, 0.0, 0.0, 0.0, 0.0, 0.0, 0.0]
---
header: 
  seq: 9
  stamp: 
    secs: 22079
    nsecs: 830400000
  frame_id: ''
orientation: 
  x: 0.0
  y: 0.0
  z: 0.0
  w: 0.0
orientation_covariance: [0.0, 0.0, 0.0, 0.0, 0.0, 0.0, 0.0, 0.0, 0.0]
angular_velocity: 
  x: -1.303760951239764
  y: 0.005235987755982989
  z: 2.848377339254746
angular_velocity_covariance: [0.0, 0.0, 0.0, 0.0, 0.0, 0.0, 0.0, 0.0, 0.0]
linear_acceleration: 
  x: -14.8
  y: 9.3
  z: 9.1
linear_acceleration_covariance: [0.0, 0.0, 0.0, 0.0, 0.0, 0.0, 0.0, 0.0, 0.0]
---
header: 
  seq: 10
  stamp: 
    secs: 22079
    nsecs: 847100000
  frame_id: ''
orientation: 
  x: 0.0
  y: 0.0
  z: 0.0
  w: 0.0
orientation_covariance: [0.0, 0.0, 0.0, 0.0, 0.0, 0.0, 0.0, 0.0, 0.0]
angular_velocity: 
  x: -1.5166911199830724
  y: -1.2182398178920422
  z: 5.0056042947197374
angular_velocity_covariance: [0.0, 0.0, 0.0, 0.0, 0.0, 0.0, 0.0, 0.0, 0.0]
linear_acceleration: 
  x: -10.0
  y: 6.1000000000000005
  z: 14.8
linear_acceleration_covariance: [0.0, 0.0, 0.0, 0.0, 0.0, 0.0, 0.0, 0.0, 0.0]
---
header: 
  seq: 11
  stamp: 
    secs: 22079
    nsecs: 880400000
  frame_id: ''
orientation: 
  x: 0.0
  y: 0.0
  z: 0.0
  w: 0.0
orientation_covariance: [0.0, 0.0, 0.0, 0.0, 0.0, 0.0, 0.0, 0.0, 0.0]
angular_velocity: 
  x: 2.343977185428385
  y: 3.817035074111599
  z: 7.904596182282319
angular_velocity_covariance: [0.0, 0.0, 0.0, 0.0, 0.0, 0.0, 0.0, 0.0, 0.0]
linear_acceleration: 
  x: -5.2
  y: -1.8
  z: 16.3
linear_acceleration_covariance: [0.0, 0.0, 0.0, 0.0, 0.0, 0.0, 0.0, 0.0, 0.0]
---
header: 
  seq: 12
  stamp: 
    secs: 22079
    nsecs: 897100000
  frame_id: ''
orientation: 
  x: 0.0
  y: 0.0
  z: 0.0
  w: 0.0
orientation_covariance: [0.0, 0.0, 0.0, 0.0, 0.0, 0.0, 0.0, 0.0, 0.0]
angular_velocity: 
  x: 5.614724203665758
  y: 7.244861725028462
  z: 10.382963720114267
angular_velocity_covariance: [0.0, 0.0, 0.0, 0.0, 0.0, 0.0, 0.0, 0.0, 0.0]
linear_acceleration: 
  x: -0.8
  y: -5.2
  z: 11.5
linear_acceleration_covariance: [0.0, 0.0, 0.0, 0.0, 0.0, 0.0, 0.0, 0.0, 0.0]
---
header: 
  seq: 13
  stamp: 
    secs: 22079
    nsecs: 913800000
  frame_id: ''
orientation: 
  x: 0.0
  y: 0.0
  z: 0.0
  w: 0.0
orientation_covariance: [0.0, 0.0, 0.0, 0.0, 0.0, 0.0, 0.0, 0.0, 0.0]
angular_velocity: 
  x: 5.122541354603357
  y: 6.672393730374322
  z: 10.538298023541762
angular_velocity_covariance: [0.0, 0.0, 0.0, 0.0, 0.0, 0.0, 0.0, 0.0, 0.0]
linear_acceleration: 
  x: 4.800000000000001
  y: -7.300000000000001
  z: 8.1
linear_acceleration_covariance: [0.0, 0.0, 0.0, 0.0, 0.0, 0.0, 0.0, 0.0, 0.0]
---
header: 
  seq: 14
  stamp: 
    secs: 22079
    nsecs: 947100000
  frame_id: ''
orientation: 
  x: 0.0
  y: 0.0
  z: 0.0
  w: 0.0
orientation_covariance: [0.0, 0.0, 0.0, 0.0, 0.0, 0.0, 0.0, 0.0, 0.0]
angular_velocity: 
  x: 3.9584067435231396
  y: 5.152211951887261
  z: 9.937904760855712
angular_velocity_covariance: [0.0, 0.0, 0.0, 0.0, 0.0, 0.0, 0.0, 0.0, 0.0]
linear_acceleration: 
  x: 13.600000000000001
  y: -7.5
  z: 4.0
linear_acceleration_covariance: [0.0, 0.0, 0.0, 0.0, 0.0, 0.0, 0.0, 0.0, 0.0]
---
header: 
  seq: 15
  stamp: 
    secs: 22079
    nsecs: 963800000
  frame_id: ''
orientation: 
  x: 0.0
  y: 0.0
  z: 0.0
  w: 0.0
orientation_covariance: [0.0, 0.0, 0.0, 0.0, 0.0, 0.0, 0.0, 0.0, 0.0]
angular_velocity: 
  x: 0.9669124056048586
  y: -0.6754424205218056
  z: 6.316346562967479
angular_velocity_covariance: [0.0, 0.0, 0.0, 0.0, 0.0, 0.0, 0.0, 0.0, 0.0]
linear_acceleration: 
  x: 24.5
  y: -4.800000000000001
  z: -0.2
linear_acceleration_covariance: [0.0, 0.0, 0.0, 0.0, 0.0, 0.0, 0.0, 0.0, 0.0]
---
header: 
  seq: 16
  stamp: 
    secs: 22079
    nsecs: 980500000
  frame_id: ''
orientation: 
  x: 0.0
  y: 0.0
  z: 0.0
  w: 0.0
orientation_covariance: [0.0, 0.0, 0.0, 0.0, 0.0, 0.0, 0.0, 0.0, 0.0]
angular_velocity: 
  x: -1.2356931104119853
  y: -3.0124382889422128
  z: 2.178170906488923
angular_velocity_covariance: [0.0, 0.0, 0.0, 0.0, 0.0, 0.0, 0.0, 0.0, 0.0]
linear_acceleration: 
  x: 36.0
  y: -2.2
  z: -2.0
linear_acceleration_covariance: [0.0, 0.0, 0.0, 0.0, 0.0, 0.0, 0.0, 0.0, 0.0]
---
header: 
  seq: 17
  stamp: 
    secs: 22080
    nsecs:  13700000
  frame_id: ''
orientation: 
  x: 0.0
  y: 0.0
  z: 0.0
  w: 0.0
orientation_covariance: [0.0, 0.0, 0.0, 0.0, 0.0, 0.0, 0.0, 0.0, 0.0]
angular_velocity: 
  x: -3.251548396465436
  y: -3.4766958699727044
  z: -2.6965336943312392
angular_velocity_covariance: [0.0, 0.0, 0.0, 0.0, 0.0, 0.0, 0.0, 0.0, 0.0]
linear_acceleration: 
  x: 31.8
  y: -6.2
  z: -1.0
linear_acceleration_covariance: [0.0, 0.0, 0.0, 0.0, 0.0, 0.0, 0.0, 0.0, 0.0]
---
header: 
  seq: 18
  stamp: 
    secs: 22080
    nsecs:  30400000
  frame_id: ''
orientation: 
  x: 0.0
  y: 0.0
  z: 0.0
  w: 0.0
orientation_covariance: [0.0, 0.0, 0.0, 0.0, 0.0, 0.0, 0.0, 0.0, 0.0]
angular_velocity: 
  x: -6.215117466351808
  y: -2.5987952562195566
  z: -10.286970611254578
angular_velocity_covariance: [0.0, 0.0, 0.0, 0.0, 0.0, 0.0, 0.0, 0.0, 0.0]
linear_acceleration: 
  x: 23.6
  y: -10.9
  z: 0.9
linear_acceleration_covariance: [0.0, 0.0, 0.0, 0.0, 0.0, 0.0, 0.0, 0.0, 0.0]
---
header: 
  seq: 19
  stamp: 
    secs: 22080
    nsecs:  63800000
  frame_id: ''
orientation: 
  x: 0.0
  y: 0.0
  z: 0.0
  w: 0.0
orientation_covariance: [0.0, 0.0, 0.0, 0.0, 0.0, 0.0, 0.0, 0.0, 0.0]
angular_velocity: 
  x: -7.023204910025182
  y: -3.1049407392979123
  z: -12.599531870147064
angular_velocity_covariance: [0.0, 0.0, 0.0, 0.0, 0.0, 0.0, 0.0, 0.0, 0.0]
linear_acceleration: 
  x: 5.4
  y: -18.6
  z: 5.4
linear_acceleration_covariance: [0.0, 0.0, 0.0, 0.0, 0.0, 0.0, 0.0, 0.0, 0.0]
---
header: 
  seq: 20
  stamp: 
    secs: 22080
    nsecs:  80400000
  frame_id: ''
orientation: 
  x: 0.0
  y: 0.0
  z: 0.0
  w: 0.0
orientation_covariance: [0.0, 0.0, 0.0, 0.0, 0.0, 0.0, 0.0, 0.0, 0.0]
angular_velocity: 
  x: -7.440338601251827
  y: -3.8257617203715704
  z: -13.950416711190677
angular_velocity_covariance: [0.0, 0.0, 0.0, 0.0, 0.0, 0.0, 0.0, 0.0, 0.0]
linear_acceleration: 
  x: -12.4
  y: -16.5
  z: 6.6000000000000005
linear_acceleration_covariance: [0.0, 0.0, 0.0, 0.0, 0.0, 0.0, 0.0, 0.0, 0.0]
---
header: 
  seq: 21
  stamp: 
    secs: 22080
    nsecs:  97100000
  frame_id: ''
orientation: 
  x: 0.0
  y: 0.0
  z: 0.0
  w: 0.0
orientation_covariance: [0.0, 0.0, 0.0, 0.0, 0.0, 0.0, 0.0, 0.0, 0.0]
angular_velocity: 
  x: -8.496262798708397
  y: -7.099999397112933
  z: -8.328711190516941
angular_velocity_covariance: [0.0, 0.0, 0.0, 0.0, 0.0, 0.0, 0.0, 0.0, 0.0]
linear_acceleration: 
  x: -33.2
  y: -5.7
  z: 15.600000000000001
linear_acceleration_covariance: [0.0, 0.0, 0.0, 0.0, 0.0, 0.0, 0.0, 0.0, 0.0]
---
header: 
  seq: 22
  stamp: 
    secs: 22080
    nsecs: 130400000
  frame_id: ''
orientation: 
  x: 0.0
  y: 0.0
  z: 0.0
  w: 0.0
orientation_covariance: [0.0, 0.0, 0.0, 0.0, 0.0, 0.0, 0.0, 0.0, 0.0]
angular_velocity: 
  x: -6.019640590128443
  y: -4.351105825221864
  z: -0.5742133239061344
angular_velocity_covariance: [0.0, 0.0, 0.0, 0.0, 0.0, 0.0, 0.0, 0.0, 0.0]
linear_acceleration: 
  x: -16.7
  y: 2.8000000000000003
  z: 42.6
linear_acceleration_covariance: [0.0, 0.0, 0.0, 0.0, 0.0, 0.0, 0.0, 0.0, 0.0]
---
header: 
  seq: 23
  stamp: 
    secs: 22080
    nsecs: 147100000
  frame_id: ''
orientation: 
  x: 0.0
  y: 0.0
  z: 0.0
  w: 0.0
orientation_covariance: [0.0, 0.0, 0.0, 0.0, 0.0, 0.0, 0.0, 0.0, 0.0]
angular_velocity: 
  x: 6.415830330331156
  y: 7.52236907609556
  z: 6.960373056953387
angular_velocity_covariance: [0.0, 0.0, 0.0, 0.0, 0.0, 0.0, 0.0, 0.0, 0.0]
linear_acceleration: 
  x: -9.0
  y: -0.5
  z: 37.4
linear_acceleration_covariance: [0.0, 0.0, 0.0, 0.0, 0.0, 0.0, 0.0, 0.0, 0.0]
---
header: 
  seq: 24
  stamp: 
    secs: 22080
    nsecs: 163800000
  frame_id: ''
orientation: 
  x: 0.0
  y: 0.0
  z: 0.0
  w: 0.0
orientation_covariance: [0.0, 0.0, 0.0, 0.0, 0.0, 0.0, 0.0, 0.0, 0.0]
angular_velocity: 
  x: 10.171778880622952
  y: 8.822639368831336
  z: 9.08618408588248
angular_velocity_covariance: [0.0, 0.0, 0.0, 0.0, 0.0, 0.0, 0.0, 0.0, 0.0]
linear_acceleration: 
  x: -8.0
  y: -4.5
  z: 26.900000000000002
linear_acceleration_covariance: [0.0, 0.0, 0.0, 0.0, 0.0, 0.0, 0.0, 0.0, 0.0]
---
header: 
  seq: 25
  stamp: 
    secs: 22080
    nsecs: 197100000
  frame_id: ''
orientation: 
  x: 0.0
  y: 0.0
  z: 0.0
  w: 0.0
orientation_covariance: [0.0, 0.0, 0.0, 0.0, 0.0, 0.0, 0.0, 0.0, 0.0]
angular_velocity: 
  x: 11.58549557473836
  y: 8.011061266653973
  z: 11.07760476240801
angular_velocity_covariance: [0.0, 0.0, 0.0, 0.0, 0.0, 0.0, 0.0, 0.0, 0.0]
linear_acceleration: 
  x: 4.6000000000000005
  y: -14.3
  z: 5.6000000000000005
linear_acceleration_covariance: [0.0, 0.0, 0.0, 0.0, 0.0, 0.0, 0.0, 0.0, 0.0]
---
header: 
  seq: 26
  stamp: 
    secs: 22080
    nsecs: 213800000
  frame_id: ''
orientation: 
  x: 0.0
  y: 0.0
  z: 0.0
  w: 0.0
orientation_covariance: [0.0, 0.0, 0.0, 0.0, 0.0, 0.0, 0.0, 0.0, 0.0]
angular_velocity: 
  x: 9.587093581204853
  y: 7.291985614832309
  z: 12.058479802028824
angular_velocity_covariance: [0.0, 0.0, 0.0, 0.0, 0.0, 0.0, 0.0, 0.0, 0.0]
linear_acceleration: 
  x: 12.3
  y: -14.700000000000001
  z: 3.8000000000000003
linear_acceleration_covariance: [0.0, 0.0, 0.0, 0.0, 0.0, 0.0, 0.0, 0.0, 0.0]
---
header: 
  seq: 27
  stamp: 
    secs: 22080
    nsecs: 230400000
  frame_id: ''
orientation: 
  x: 0.0
  y: 0.0
  z: 0.0
  w: 0.0
orientation_covariance: [0.0, 0.0, 0.0, 0.0, 0.0, 0.0, 0.0, 0.0, 0.0]
angular_velocity: 
  x: 7.566002307395419
  y: 5.047492196767601
  z: 9.901252846563832
angular_velocity_covariance: [0.0, 0.0, 0.0, 0.0, 0.0, 0.0, 0.0, 0.0, 0.0]
linear_acceleration: 
  x: 28.400000000000002
  y: -8.9
  z: -0.7000000000000001
linear_acceleration_covariance: [0.0, 0.0, 0.0, 0.0, 0.0, 0.0, 0.0, 0.0, 0.0]
---
header: 
  seq: 28
  stamp: 
    secs: 22080
    nsecs: 263800000
  frame_id: ''
orientation: 
  x: 0.0
  y: 0.0
  z: 0.0
  w: 0.0
orientation_covariance: [0.0, 0.0, 0.0, 0.0, 0.0, 0.0, 0.0, 0.0, 0.0]
angular_velocity: 
  x: 3.6250488563922225
  y: 0.5515240436302081
  z: 4.199262180298357
angular_velocity_covariance: [0.0, 0.0, 0.0, 0.0, 0.0, 0.0, 0.0, 0.0, 0.0]
linear_acceleration: 
  x: 49.2
  y: 3.0
  z: -9.3
linear_acceleration_covariance: [0.0, 0.0, 0.0, 0.0, 0.0, 0.0, 0.0, 0.0, 0.0]
---
header: 
  seq: 29
  stamp: 
    secs: 22080
    nsecs: 280400000
  frame_id: ''
orientation: 
  x: 0.0
  y: 0.0
  z: 0.0
  w: 0.0
orientation_covariance: [0.0, 0.0, 0.0, 0.0, 0.0, 0.0, 0.0, 0.0, 0.0]
angular_velocity: 
  x: -4.8712139423161736
  y: -5.087634769563471
  z: -9.346238144429634
angular_velocity_covariance: [0.0, 0.0, 0.0, 0.0, 0.0, 0.0, 0.0, 0.0, 0.0]
linear_acceleration: 
  x: 34.5
  y: -5.0
  z: -5.6000000000000005
linear_acceleration_covariance: [0.0, 0.0, 0.0, 0.0, 0.0, 0.0, 0.0, 0.0, 0.0]
---
header: 
  seq: 30
  stamp: 
    secs: 22080
    nsecs: 297100000
  frame_id: ''
orientation: 
  x: 0.0
  y: 0.0
  z: 0.0
  w: 0.0
orientation_covariance: [0.0, 0.0, 0.0, 0.0, 0.0, 0.0, 0.0, 0.0, 0.0]
angular_velocity: 
  x: -7.508406442079606
  y: -5.616469532917753
  z: -12.840387306922283
angular_velocity_covariance: [0.0, 0.0, 0.0, 0.0, 0.0, 0.0, 0.0, 0.0, 0.0]
linear_acceleration: 
  x: 19.3
  y: -13.9
  z: -0.6000000000000001
linear_acceleration_covariance: [0.0, 0.0, 0.0, 0.0, 0.0, 0.0, 0.0, 0.0, 0.0]
---
header: 
  seq: 31
  stamp: 
    secs: 22080
    nsecs: 330400000
  frame_id: ''
orientation: 
  x: 0.0
  y: 0.0
  z: 0.0
  w: 0.0
orientation_covariance: [0.0, 0.0, 0.0, 0.0, 0.0, 0.0, 0.0, 0.0, 0.0]
angular_velocity: 
  x: -9.299114254625788
  y: -6.5973445725385655
  z: -14.678219009272311
angular_velocity_covariance: [0.0, 0.0, 0.0, 0.0, 0.0, 0.0, 0.0, 0.0, 0.0]
linear_acceleration: 
  x: -2.7
  y: -22.1
  z: 8.0
linear_acceleration_covariance: [0.0, 0.0, 0.0, 0.0, 0.0, 0.0, 0.0, 0.0, 0.0]
---
header: 
  seq: 32
  stamp: 
    secs: 22080
    nsecs: 347100000
  frame_id: ''
orientation: 
  x: 0.0
  y: 0.0
  z: 0.0
  w: 0.0
orientation_covariance: [0.0, 0.0, 0.0, 0.0, 0.0, 0.0, 0.0, 0.0, 0.0]
angular_velocity: 
  x: -11.676252695842065
  y: -10.983356982800316
  z: -13.178981181809183
angular_velocity_covariance: [0.0, 0.0, 0.0, 0.0, 0.0, 0.0, 0.0, 0.0, 0.0]
linear_acceleration: 
  x: -22.400000000000002
  y: -16.400000000000002
  z: 13.100000000000001
linear_acceleration_covariance: [0.0, 0.0, 0.0, 0.0, 0.0, 0.0, 0.0, 0.0, 0.0]
---
header: 
  seq: 33
  stamp: 
    secs: 22080
    nsecs: 380400000
  frame_id: ''
orientation: 
  x: 0.0
  y: 0.0
  z: 0.0
  w: 0.0
orientation_covariance: [0.0, 0.0, 0.0, 0.0, 0.0, 0.0, 0.0, 0.0, 0.0]
angular_velocity: 
  x: -11.41619863729491
  y: -9.819222371720098
  z: -5.867796945204936
angular_velocity_covariance: [0.0, 0.0, 0.0, 0.0, 0.0, 0.0, 0.0, 0.0, 0.0]
linear_acceleration: 
  x: -29.6
  y: 1.3
  z: 51.300000000000004
linear_acceleration_covariance: [0.0, 0.0, 0.0, 0.0, 0.0, 0.0, 0.0, 0.0, 0.0]
---
header: 
  seq: 34
  stamp: 
    secs: 22080
    nsecs: 397100000
  frame_id: ''
orientation: 
  x: 0.0
  y: 0.0
  z: 0.0
  w: 0.0
orientation_covariance: [0.0, 0.0, 0.0, 0.0, 0.0, 0.0, 0.0, 0.0, 0.0]
angular_velocity: 
  x: 2.9670597283903604
  y: 5.382595413150512
  z: 6.693337681398254
angular_velocity_covariance: [0.0, 0.0, 0.0, 0.0, 0.0, 0.0, 0.0, 0.0, 0.0]
linear_acceleration: 
  x: -19.400000000000002
  y: -1.9000000000000001
  z: 50.6
linear_acceleration_covariance: [0.0, 0.0, 0.0, 0.0, 0.0, 0.0, 0.0, 0.0, 0.0]
---
header: 
  seq: 35
  stamp: 
    secs: 22080
    nsecs: 413800000
  frame_id: ''
orientation: 
  x: 0.0
  y: 0.0
  z: 0.0
  w: 0.0
orientation_covariance: [0.0, 0.0, 0.0, 0.0, 0.0, 0.0, 0.0, 0.0, 0.0]
angular_velocity: 
  x: 9.526007057385051
  y: 9.272934315845873
  z: 10.072295113259276
angular_velocity_covariance: [0.0, 0.0, 0.0, 0.0, 0.0, 0.0, 0.0, 0.0, 0.0]
linear_acceleration: 
  x: -13.5
  y: -9.200000000000001
  z: 39.5
linear_acceleration_covariance: [0.0, 0.0, 0.0, 0.0, 0.0, 0.0, 0.0, 0.0, 0.0]
---
header: 
  seq: 36
  stamp: 
    secs: 22080
    nsecs: 447100000
  frame_id: ''
orientation: 
  x: 0.0
  y: 0.0
  z: 0.0
  w: 0.0
orientation_covariance: [0.0, 0.0, 0.0, 0.0, 0.0, 0.0, 0.0, 0.0, 0.0]
angular_velocity: 
  x: 12.615239833415014
  y: 9.152506597458265
  z: 12.8351513191663
angular_velocity_covariance: [0.0, 0.0, 0.0, 0.0, 0.0, 0.0, 0.0, 0.0, 0.0]
linear_acceleration: 
  x: 2.5
  y: -22.8
  z: 10.9
linear_acceleration_covariance: [0.0, 0.0, 0.0, 0.0, 0.0, 0.0, 0.0, 0.0, 0.0]
---
header: 
  seq: 37
  stamp: 
    secs: 22080
    nsecs: 463700000
  frame_id: ''
orientation: 
  x: 0.0
  y: 0.0
  z: 0.0
  w: 0.0
orientation_covariance: [0.0, 0.0, 0.0, 0.0, 0.0, 0.0, 0.0, 0.0, 0.0]
angular_velocity: 
  x: 11.812388377497623
  y: 7.367034772668065
  z: 14.001031259498513
angular_velocity_covariance: [0.0, 0.0, 0.0, 0.0, 0.0, 0.0, 0.0, 0.0, 0.0]
linear_acceleration: 
  x: 14.600000000000001
  y: -20.8
  z: 3.6
linear_acceleration_covariance: [0.0, 0.0, 0.0, 0.0, 0.0, 0.0, 0.0, 0.0, 0.0]
---
header: 
  seq: 38
  stamp: 
    secs: 22080
    nsecs: 480400000
  frame_id: ''
orientation: 
  x: 0.0
  y: 0.0
  z: 0.0
  w: 0.0
orientation_covariance: [0.0, 0.0, 0.0, 0.0, 0.0, 0.0, 0.0, 0.0, 0.0]
angular_velocity: 
  x: 8.745844881743585
  y: 4.167846253762459
  z: 10.471975511965978
angular_velocity_covariance: [0.0, 0.0, 0.0, 0.0, 0.0, 0.0, 0.0, 0.0, 0.0]
linear_acceleration: 
  x: 36.9
  y: -8.3
  z: -6.0
linear_acceleration_covariance: [0.0, 0.0, 0.0, 0.0, 0.0, 0.0, 0.0, 0.0, 0.0]
---
header: 
  seq: 39
  stamp: 
    secs: 22080
    nsecs: 513700000
  frame_id: ''
orientation: 
  x: 0.0
  y: 0.0
  z: 0.0
  w: 0.0
orientation_covariance: [0.0, 0.0, 0.0, 0.0, 0.0, 0.0, 0.0, 0.0, 0.0]
angular_velocity: 
  x: 2.801253449450899
  y: -2.2514747350726854
  z: 2.548180707911721
angular_velocity_covariance: [0.0, 0.0, 0.0, 0.0, 0.0, 0.0, 0.0, 0.0, 0.0]
linear_acceleration: 
  x: 49.5
  y: 2.5
  z: -16.5
linear_acceleration_covariance: [0.0, 0.0, 0.0, 0.0, 0.0, 0.0, 0.0, 0.0, 0.0]
---
header: 
  seq: 40
  stamp: 
    secs: 22080
    nsecs: 530400000
  frame_id: ''
orientation: 
  x: 0.0
  y: 0.0
  z: 0.0
  w: 0.0
orientation_covariance: [0.0, 0.0, 0.0, 0.0, 0.0, 0.0, 0.0, 0.0, 0.0]
angular_velocity: 
  x: -8.592255907568084
  y: -6.269222673163632
  z: -11.746065865921839
angular_velocity_covariance: [0.0, 0.0, 0.0, 0.0, 0.0, 0.0, 0.0, 0.0, 0.0]
linear_acceleration: 
  x: 27.8
  y: -10.3
  z: -6.0
linear_acceleration_covariance: [0.0, 0.0, 0.0, 0.0, 0.0, 0.0, 0.0, 0.0, 0.0]
---
header: 
  seq: 41
  stamp: 
    secs: 22080
    nsecs: 547100000
  frame_id: ''
orientation: 
  x: 0.0
  y: 0.0
  z: 0.0
  w: 0.0
orientation_covariance: [0.0, 0.0, 0.0, 0.0, 0.0, 0.0, 0.0, 0.0, 0.0]
angular_velocity: 
  x: -10.98510231205231
  y: -5.9655353833166185
  z: -14.053391137058341
angular_velocity_covariance: [0.0, 0.0, 0.0, 0.0, 0.0, 0.0, 0.0, 0.0, 0.0]
linear_acceleration: 
  x: 10.100000000000001
  y: -19.1
  z: 1.5
linear_acceleration_covariance: [0.0, 0.0, 0.0, 0.0, 0.0, 0.0, 0.0, 0.0, 0.0]
---
header: 
  seq: 42
  stamp: 
    secs: 22080
    nsecs: 580400000
  frame_id: ''
orientation: 
  x: 0.0
  y: 0.0
  z: 0.0
  w: 0.0
orientation_covariance: [0.0, 0.0, 0.0, 0.0, 0.0, 0.0, 0.0, 0.0, 0.0]
angular_velocity: 
  x: -12.306316555812018
  y: -7.447319918259804
  z: -14.292501244581565
angular_velocity_covariance: [0.0, 0.0, 0.0, 0.0, 0.0, 0.0, 0.0, 0.0, 0.0]
linear_acceleration: 
  x: -26.8
  y: -14.200000000000001
  z: 23.1
linear_acceleration_covariance: [0.0, 0.0, 0.0, 0.0, 0.0, 0.0, 0.0, 0.0, 0.0]
---
header: 
  seq: 43
  stamp: 
    secs: 22080
    nsecs: 597100000
  frame_id: ''
orientation: 
  x: 0.0
  y: 0.0
  z: 0.0
  w: 0.0
orientation_covariance: [0.0, 0.0, 0.0, 0.0, 0.0, 0.0, 0.0, 0.0, 0.0]
angular_velocity: 
  x: -7.951720072086165
  y: -5.8817595792208905
  z: -3.7629298672997744
angular_velocity_covariance: [0.0, 0.0, 0.0, 0.0, 0.0, 0.0, 0.0, 0.0, 0.0]
linear_acceleration: 
  x: -42.1
  y: -1.8
  z: 44.400000000000006
linear_acceleration_covariance: [0.0, 0.0, 0.0, 0.0, 0.0, 0.0, 0.0, 0.0, 0.0]
---
header: 
  seq: 44
  stamp: 
    secs: 22080
    nsecs: 613700000
  frame_id: ''
orientation: 
  x: 0.0
  y: 0.0
  z: 0.0
  w: 0.0
orientation_covariance: [0.0, 0.0, 0.0, 0.0, 0.0, 0.0, 0.0, 0.0, 0.0]
angular_velocity: 
  x: 0.7993607974134029
  y: 0.8726646259971648
  z: 3.7140606482439336
angular_velocity_covariance: [0.0, 0.0, 0.0, 0.0, 0.0, 0.0, 0.0, 0.0, 0.0]
linear_acceleration: 
  x: -30.5
  y: 3.3000000000000003
  z: 53.7
linear_acceleration_covariance: [0.0, 0.0, 0.0, 0.0, 0.0, 0.0, 0.0, 0.0, 0.0]
---
header: 
  seq: 45
  stamp: 
    secs: 22080
    nsecs: 647100000
  frame_id: ''
orientation: 
  x: 0.0
  y: 0.0
  z: 0.0
  w: 0.0
orientation_covariance: [0.0, 0.0, 0.0, 0.0, 0.0, 0.0, 0.0, 0.0, 0.0]
angular_velocity: 
  x: 8.424704299376629
  y: 5.9096848472528
  z: 8.475318847684465
angular_velocity_covariance: [0.0, 0.0, 0.0, 0.0, 0.0, 0.0, 0.0, 0.0, 0.0]
linear_acceleration: 
  x: -5.1000000000000005
  y: -13.700000000000001
  z: 21.200000000000003
linear_acceleration_covariance: [0.0, 0.0, 0.0, 0.0, 0.0, 0.0, 0.0, 0.0, 0.0]
---
header: 
  seq: 46
  stamp: 
    secs: 22080
    nsecs: 663700000
  frame_id: ''
orientation: 
  x: 0.0
  y: 0.0
  z: 0.0
  w: 0.0
orientation_covariance: [0.0, 0.0, 0.0, 0.0, 0.0, 0.0, 0.0, 0.0, 0.0]
angular_velocity: 
  x: 12.021827887736942
  y: 5.305800926062762
  z: 11.735593890409872
angular_velocity_covariance: [0.0, 0.0, 0.0, 0.0, 0.0, 0.0, 0.0, 0.0, 0.0]
linear_acceleration: 
  x: 11.100000000000001
  y: -15.700000000000001
  z: 4.9
linear_acceleration_covariance: [0.0, 0.0, 0.0, 0.0, 0.0, 0.0, 0.0, 0.0, 0.0]
---
header: 
  seq: 47
  stamp: 
    secs: 22080
    nsecs: 697100000
  frame_id: ''
orientation: 
  x: 0.0
  y: 0.0
  z: 0.0
  w: 0.0
orientation_covariance: [0.0, 0.0, 0.0, 0.0, 0.0, 0.0, 0.0, 0.0, 0.0]
angular_velocity: 
  x: 8.126252997285599
  y: 1.2356931104119853
  z: 8.157668923821497
angular_velocity_covariance: [0.0, 0.0, 0.0, 0.0, 0.0, 0.0, 0.0, 0.0, 0.0]
linear_acceleration: 
  x: 45.2
  y: 4.800000000000001
  z: -24.3
linear_acceleration_covariance: [0.0, 0.0, 0.0, 0.0, 0.0, 0.0, 0.0, 0.0, 0.0]
---
header: 
  seq: 48
  stamp: 
    secs: 22080
    nsecs: 713800000
  frame_id: ''
orientation: 
  x: 0.0
  y: 0.0
  z: 0.0
  w: 0.0
orientation_covariance: [0.0, 0.0, 0.0, 0.0, 0.0, 0.0, 0.0, 0.0, 0.0]
angular_velocity: 
  x: -5.462880558742252
  y: -7.1279246651448425
  z: -5.501277802286127
angular_velocity_covariance: [0.0, 0.0, 0.0, 0.0, 0.0, 0.0, 0.0, 0.0, 0.0]
linear_acceleration: 
  x: 36.300000000000004
  y: 0.5
  z: -15.8
linear_acceleration_covariance: [0.0, 0.0, 0.0, 0.0, 0.0, 0.0, 0.0, 0.0, 0.0]
---
header: 
  seq: 49
  stamp: 
    secs: 22080
    nsecs: 730400000
  frame_id: ''
orientation: 
  x: 0.0
  y: 0.0
  z: 0.0
  w: 0.0
orientation_covariance: [0.0, 0.0, 0.0, 0.0, 0.0, 0.0, 0.0, 0.0, 0.0]
angular_velocity: 
  x: -9.117600012418377
  y: -6.255260039147677
  z: -8.721410272215666
angular_velocity_covariance: [0.0, 0.0, 0.0, 0.0, 0.0, 0.0, 0.0, 0.0, 0.0]
linear_acceleration: 
  x: 18.6
  y: -7.1000000000000005
  z: -3.0
linear_acceleration_covariance: [0.0, 0.0, 0.0, 0.0, 0.0, 0.0, 0.0, 0.0, 0.0]
---
header: 
  seq: 50
  stamp: 
    secs: 22080
    nsecs: 763800000
  frame_id: ''
orientation: 
  x: 0.0
  y: 0.0
  z: 0.0
  w: 0.0
orientation_covariance: [0.0, 0.0, 0.0, 0.0, 0.0, 0.0, 0.0, 0.0, 0.0]
angular_velocity: 
  x: -9.90474350506782
  y: -3.220132469929538
  z: -9.075712110370514
angular_velocity_covariance: [0.0, 0.0, 0.0, 0.0, 0.0, 0.0, 0.0, 0.0, 0.0]
linear_acceleration: 
  x: -21.1
  y: -2.6
  z: 20.1
linear_acceleration_covariance: [0.0, 0.0, 0.0, 0.0, 0.0, 0.0, 0.0, 0.0, 0.0]
---
header: 
  seq: 51
  stamp: 
    secs: 22080
    nsecs: 780400000
  frame_id: ''
orientation: 
  x: 0.0
  y: 0.0
  z: 0.0
  w: 0.0
orientation_covariance: [0.0, 0.0, 0.0, 0.0, 0.0, 0.0, 0.0, 0.0, 0.0]
angular_velocity: 
  x: -3.796091123087667
  y: -0.9040805525330627
  z: -2.6022859147235455
angular_velocity_covariance: [0.0, 0.0, 0.0, 0.0, 0.0, 0.0, 0.0, 0.0, 0.0]
linear_acceleration: 
  x: -24.3
  y: 4.4
  z: 26.900000000000002
linear_acceleration_covariance: [0.0, 0.0, 0.0, 0.0, 0.0, 0.0, 0.0, 0.0, 0.0]
---
header: 
  seq: 52
  stamp: 
    secs: 22080
    nsecs: 797000000
  frame_id: ''
orientation: 
  x: 0.0
  y: 0.0
  z: 0.0
  w: 0.0
orientation_covariance: [0.0, 0.0, 0.0, 0.0, 0.0, 0.0, 0.0, 0.0, 0.0]
angular_velocity: 
  x: 0.3822271061867582
  y: 0.8377580409572782
  z: 0.7661995416255107
angular_velocity_covariance: [0.0, 0.0, 0.0, 0.0, 0.0, 0.0, 0.0, 0.0, 0.0]
linear_acceleration: 
  x: -16.2
  y: 7.0
  z: 25.900000000000002
linear_acceleration_covariance: [0.0, 0.0, 0.0, 0.0, 0.0, 0.0, 0.0, 0.0, 0.0]
---
header: 
  seq: 53
  stamp: 
    secs: 22080
    nsecs: 830400000
  frame_id: ''
orientation: 
  x: 0.0
  y: 0.0
  z: 0.0
  w: 0.0
orientation_covariance: [0.0, 0.0, 0.0, 0.0, 0.0, 0.0, 0.0, 0.0, 0.0]
angular_velocity: 
  x: 3.6267941856442167
  y: 3.014183618194207
  z: 2.780309498426967
angular_velocity_covariance: [0.0, 0.0, 0.0, 0.0, 0.0, 0.0, 0.0, 0.0, 0.0]
linear_acceleration: 
  x: -2.4000000000000004
  y: 6.2
  z: 10.4
linear_acceleration_covariance: [0.0, 0.0, 0.0, 0.0, 0.0, 0.0, 0.0, 0.0, 0.0]
---
header: 
  seq: 54
  stamp: 
    secs: 22080
    nsecs: 847100000
  frame_id: ''
orientation: 
  x: 0.0
  y: 0.0
  z: 0.0
  w: 0.0
orientation_covariance: [0.0, 0.0, 0.0, 0.0, 0.0, 0.0, 0.0, 0.0, 0.0]
angular_velocity: 
  x: 4.715879638888678
  y: 3.9269908169872414
  z: 2.8867745827986213
angular_velocity_covariance: [0.0, 0.0, 0.0, 0.0, 0.0, 0.0, 0.0, 0.0, 0.0]
linear_acceleration: 
  x: 1.3
  y: 7.300000000000001
  z: 5.4
linear_acceleration_covariance: [0.0, 0.0, 0.0, 0.0, 0.0, 0.0, 0.0, 0.0, 0.0]
---
header: 
  seq: 55
  stamp: 
    secs: 22080
    nsecs: 863700000
  frame_id: ''
orientation: 
  x: 0.0
  y: 0.0
  z: 0.0
  w: 0.0
orientation_covariance: [0.0, 0.0, 0.0, 0.0, 0.0, 0.0, 0.0, 0.0, 0.0]
angular_velocity: 
  x: 3.6023595761162963
  y: 2.670353755551324
  z: 1.7296212887263807
angular_velocity_covariance: [0.0, 0.0, 0.0, 0.0, 0.0, 0.0, 0.0, 0.0, 0.0]
linear_acceleration: 
  x: -0.8
  y: 7.9
  z: 1.6
linear_acceleration_covariance: [0.0, 0.0, 0.0, 0.0, 0.0, 0.0, 0.0, 0.0, 0.0]
---
header: 
  seq: 56
  stamp: 
    secs: 22080
    nsecs: 897100000
  frame_id: ''
orientation: 
  x: 0.0
  y: 0.0
  z: 0.0
  w: 0.0
orientation_covariance: [0.0, 0.0, 0.0, 0.0, 0.0, 0.0, 0.0, 0.0, 0.0]
angular_velocity: 
  x: 1.980948701013564
  y: 1.4643312424232424
  z: 1.5271630954950384
angular_velocity_covariance: [0.0, 0.0, 0.0, 0.0, 0.0, 0.0, 0.0, 0.0, 0.0]
linear_acceleration: 
  x: 1.1
  y: 7.2
  z: 1.9000000000000001
linear_acceleration_covariance: [0.0, 0.0, 0.0, 0.0, 0.0, 0.0, 0.0, 0.0, 0.0]
---
header: 
  seq: 57
  stamp: 
    secs: 22080
    nsecs: 913700000
  frame_id: ''
orientation: 
  x: 0.0
  y: 0.0
  z: 0.0
  w: 0.0
orientation_covariance: [0.0, 0.0, 0.0, 0.0, 0.0, 0.0, 0.0, 0.0, 0.0]
angular_velocity: 
  x: 0.5009094953223726
  y: 2.015855286053451
  z: 0.6876597252857659
angular_velocity_covariance: [0.0, 0.0, 0.0, 0.0, 0.0, 0.0, 0.0, 0.0, 0.0]
linear_acceleration: 
  x: 4.0
  y: 6.300000000000001
  z: 3.3000000000000003
linear_acceleration_covariance: [0.0, 0.0, 0.0, 0.0, 0.0, 0.0, 0.0, 0.0, 0.0]
---
header: 
  seq: 58
  stamp: 
    secs: 22080
    nsecs: 947000000
  frame_id: ''
orientation: 
  x: 0.0
  y: 0.0
  z: 0.0
  w: 0.0
orientation_covariance: [0.0, 0.0, 0.0, 0.0, 0.0, 0.0, 0.0, 0.0, 0.0]
angular_velocity: 
  x: 0.7225663103256524
  y: 1.3805554383275147
  z: -0.6370451769779303
angular_velocity_covariance: [0.0, 0.0, 0.0, 0.0, 0.0, 0.0, 0.0, 0.0, 0.0]
linear_acceleration: 
  x: 4.0
  y: 5.7
  z: 6.800000000000001
linear_acceleration_covariance: [0.0, 0.0, 0.0, 0.0, 0.0, 0.0, 0.0, 0.0, 0.0]
---
header: 
  seq: 59
  stamp: 
    secs: 22080
    nsecs: 963800000
  frame_id: ''
orientation: 
  x: 0.0
  y: 0.0
  z: 0.0
  w: 0.0
orientation_covariance: [0.0, 0.0, 0.0, 0.0, 0.0, 0.0, 0.0, 0.0, 0.0]
angular_velocity: 
  x: 1.0576695267085636
  y: 0.17976891295541594
  z: -1.8465583486100008
angular_velocity_covariance: [0.0, 0.0, 0.0, 0.0, 0.0, 0.0, 0.0, 0.0, 0.0]
linear_acceleration: 
  x: -0.6000000000000001
  y: 5.300000000000001
  z: 6.800000000000001
linear_acceleration_covariance: [0.0, 0.0, 0.0, 0.0, 0.0, 0.0, 0.0, 0.0, 0.0]
---
header: 
  seq: 60
  stamp: 
    secs: 22080
    nsecs: 980400000
  frame_id: ''
orientation: 
  x: 0.0
  y: 0.0
  z: 0.0
  w: 0.0
orientation_covariance: [0.0, 0.0, 0.0, 0.0, 0.0, 0.0, 0.0, 0.0, 0.0]
angular_velocity: 
  x: 2.2375121010567307
  y: 1.4870205226991688
  z: -2.5830872929516078
angular_velocity_covariance: [0.0, 0.0, 0.0, 0.0, 0.0, 0.0, 0.0, 0.0, 0.0]
linear_acceleration: 
  x: -8.3
  y: 7.7
  z: 4.800000000000001
linear_acceleration_covariance: [0.0, 0.0, 0.0, 0.0, 0.0, 0.0, 0.0, 0.0, 0.0]
---
header: 
  seq: 61
  stamp: 
    secs: 22081
    nsecs:  13700000
  frame_id: ''
orientation: 
  x: 0.0
  y: 0.0
  z: 0.0
  w: 0.0
orientation_covariance: [0.0, 0.0, 0.0, 0.0, 0.0, 0.0, 0.0, 0.0, 0.0]
angular_velocity: 
  x: 2.811725424962865
  y: 3.3231068957972036
  z: -1.3177235852557188
angular_velocity_covariance: [0.0, 0.0, 0.0, 0.0, 0.0, 0.0, 0.0, 0.0, 0.0]
linear_acceleration: 
  x: -7.9
  y: 13.8
  z: 1.0
linear_acceleration_covariance: [0.0, 0.0, 0.0, 0.0, 0.0, 0.0, 0.0, 0.0, 0.0]
---
header: 
  seq: 62
  stamp: 
    secs: 22081
    nsecs:  30300000
  frame_id: ''
orientation: 
  x: 0.0
  y: 0.0
  z: 0.0
  w: 0.0
orientation_covariance: [0.0, 0.0, 0.0, 0.0, 0.0, 0.0, 0.0, 0.0, 0.0]
angular_velocity: 
  x: 3.0525808617380825
  y: 3.12413936106985
  z: 2.466150233067988
angular_velocity_covariance: [0.0, 0.0, 0.0, 0.0, 0.0, 0.0, 0.0, 0.0, 0.0]
linear_acceleration: 
  x: -5.800000000000001
  y: 12.5
  z: -3.8000000000000003
linear_acceleration_covariance: [0.0, 0.0, 0.0, 0.0, 0.0, 0.0, 0.0, 0.0, 0.0]
---
header: 
  seq: 63
  stamp: 
    secs: 22081
    nsecs:  47000000
  frame_id: ''
orientation: 
  x: 0.0
  y: 0.0
  z: 0.0
  w: 0.0
orientation_covariance: [0.0, 0.0, 0.0, 0.0, 0.0, 0.0, 0.0, 0.0, 0.0]
angular_velocity: 
  x: 1.7872171540421935
  y: 1.4416419621473162
  z: 1.8657569703819383
angular_velocity_covariance: [0.0, 0.0, 0.0, 0.0, 0.0, 0.0, 0.0, 0.0, 0.0]
linear_acceleration: 
  x: -4.2
  y: 14.600000000000001
  z: -2.8000000000000003
linear_acceleration_covariance: [0.0, 0.0, 0.0, 0.0, 0.0, 0.0, 0.0, 0.0, 0.0]
---
header: 
  seq: 64
  stamp: 
    secs: 22081
    nsecs:  80300000
  frame_id: ''
orientation: 
  x: 0.0
  y: 0.0
  z: 0.0
  w: 0.0
orientation_covariance: [0.0, 0.0, 0.0, 0.0, 0.0, 0.0, 0.0, 0.0, 0.0]
angular_velocity: 
  x: 1.439896632895322
  y: 0.26179938779914946
  z: 1.4119713648634127
angular_velocity_covariance: [0.0, 0.0, 0.0, 0.0, 0.0, 0.0, 0.0, 0.0, 0.0]
linear_acceleration: 
  x: -13.9
  y: 13.5
  z: 6.5
linear_acceleration_covariance: [0.0, 0.0, 0.0, 0.0, 0.0, 0.0, 0.0, 0.0, 0.0]
---
header: 
  seq: 65
  stamp: 
    secs: 22081
    nsecs:  97100000
  frame_id: ''
orientation: 
  x: 0.0
  y: 0.0
  z: 0.0
  w: 0.0
orientation_covariance: [0.0, 0.0, 0.0, 0.0, 0.0, 0.0, 0.0, 0.0, 0.0]
angular_velocity: 
  x: 2.4225170017681297
  y: -1.0297442586766545
  z: 4.073598474154765
angular_velocity_covariance: [0.0, 0.0, 0.0, 0.0, 0.0, 0.0, 0.0, 0.0, 0.0]
linear_acceleration: 
  x: -12.8
  y: 9.700000000000001
  z: 7.800000000000001
linear_acceleration_covariance: [0.0, 0.0, 0.0, 0.0, 0.0, 0.0, 0.0, 0.0, 0.0]
---
header: 
  seq: 66
  stamp: 
    secs: 22081
    nsecs: 113800000
  frame_id: ''
orientation: 
  x: 0.0
  y: 0.0
  z: 0.0
  w: 0.0
orientation_covariance: [0.0, 0.0, 0.0, 0.0, 0.0, 0.0, 0.0, 0.0, 0.0]
angular_velocity: 
  x: 3.12413936106985
  y: -1.5533430342749532
  z: 5.759586531581288
angular_velocity_covariance: [0.0, 0.0, 0.0, 0.0, 0.0, 0.0, 0.0, 0.0, 0.0]
linear_acceleration: 
  x: -7.5
  y: 5.1000000000000005
  z: 7.9
linear_acceleration_covariance: [0.0, 0.0, 0.0, 0.0, 0.0, 0.0, 0.0, 0.0, 0.0]
---
header: 
  seq: 67
  stamp: 
    secs: 22081
    nsecs: 147100000
  frame_id: ''
orientation: 
  x: 0.0
  y: 0.0
  z: 0.0
  w: 0.0
orientation_covariance: [0.0, 0.0, 0.0, 0.0, 0.0, 0.0, 0.0, 0.0, 0.0]
angular_velocity: 
  x: 3.876376268679406
  y: -1.3421581947836394
  z: 6.913249167149539
angular_velocity_covariance: [0.0, 0.0, 0.0, 0.0, 0.0, 0.0, 0.0, 0.0, 0.0]
linear_acceleration: 
  x: 1.4000000000000001
  y: -1.8
  z: 3.9000000000000004
linear_acceleration_covariance: [0.0, 0.0, 0.0, 0.0, 0.0, 0.0, 0.0, 0.0, 0.0]
---
header: 
  seq: 68
  stamp: 
    secs: 22081
    nsecs: 163700000
  frame_id: ''
orientation: 
  x: 0.0
  y: 0.0
  z: 0.0
  w: 0.0
orientation_covariance: [0.0, 0.0, 0.0, 0.0, 0.0, 0.0, 0.0, 0.0, 0.0]
angular_velocity: 
  x: 4.948008429403925
  y: -1.3124875974997359
  z: 8.34790981228888
angular_velocity_covariance: [0.0, 0.0, 0.0, 0.0, 0.0, 0.0, 0.0, 0.0, 0.0]
linear_acceleration: 
  x: 5.6000000000000005
  y: -5.0
  z: 0.30000000000000004
linear_acceleration_covariance: [0.0, 0.0, 0.0, 0.0, 0.0, 0.0, 0.0, 0.0, 0.0]
---
header: 
  seq: 69
  stamp: 
    secs: 22081
    nsecs: 180400000
  frame_id: ''
orientation: 
  x: 0.0
  y: 0.0
  z: 0.0
  w: 0.0
orientation_covariance: [0.0, 0.0, 0.0, 0.0, 0.0, 0.0, 0.0, 0.0, 0.0]
angular_velocity: 
  x: 4.984660343695805
  y: -2.3806290997202657
  z: 8.31649388575298
angular_velocity_covariance: [0.0, 0.0, 0.0, 0.0, 0.0, 0.0, 0.0, 0.0, 0.0]
linear_acceleration: 
  x: 15.3
  y: -6.1000000000000005
  z: -6.800000000000001
linear_acceleration_covariance: [0.0, 0.0, 0.0, 0.0, 0.0, 0.0, 0.0, 0.0, 0.0]
---
header: 
  seq: 70
  stamp: 
    secs: 22081
    nsecs: 213700000
  frame_id: ''
orientation: 
  x: 0.0
  y: 0.0
  z: 0.0
  w: 0.0
orientation_covariance: [0.0, 0.0, 0.0, 0.0, 0.0, 0.0, 0.0, 0.0, 0.0]
angular_velocity: 
  x: 3.9339721339952187
  y: -3.886848244191372
  z: 6.553711341238707
angular_velocity_covariance: [0.0, 0.0, 0.0, 0.0, 0.0, 0.0, 0.0, 0.0, 0.0]
linear_acceleration: 
  x: 32.9
  y: -6.0
  z: -18.7
linear_acceleration_covariance: [0.0, 0.0, 0.0, 0.0, 0.0, 0.0, 0.0, 0.0, 0.0]
---
header: 
  seq: 71
  stamp: 
    secs: 22081
    nsecs: 230400000
  frame_id: ''
orientation: 
  x: 0.0
  y: 0.0
  z: 0.0
  w: 0.0
orientation_covariance: [0.0, 0.0, 0.0, 0.0, 0.0, 0.0, 0.0, 0.0, 0.0]
angular_velocity: 
  x: 0.06283185307179587
  y: -2.9269171555944906
  z: -1.5987215948268059
angular_velocity_covariance: [0.0, 0.0, 0.0, 0.0, 0.0, 0.0, 0.0, 0.0, 0.0]
linear_acceleration: 
  x: 30.8
  y: -5.800000000000001
  z: -16.8
linear_acceleration_covariance: [0.0, 0.0, 0.0, 0.0, 0.0, 0.0, 0.0, 0.0, 0.0]
---
header: 
  seq: 72
  stamp: 
    secs: 22081
    nsecs: 263700000
  frame_id: ''
orientation: 
  x: 0.0
  y: 0.0
  z: 0.0
  w: 0.0
orientation_covariance: [0.0, 0.0, 0.0, 0.0, 0.0, 0.0, 0.0, 0.0, 0.0]
angular_velocity: 
  x: -1.467821900927231
  y: -1.303760951239764
  z: -5.508259119294104
angular_velocity_covariance: [0.0, 0.0, 0.0, 0.0, 0.0, 0.0, 0.0, 0.0, 0.0]
linear_acceleration: 
  x: 18.7
  y: -8.5
  z: -14.200000000000001
linear_acceleration_covariance: [0.0, 0.0, 0.0, 0.0, 0.0, 0.0, 0.0, 0.0, 0.0]
---
header: 
  seq: 73
  stamp: 
    secs: 22081
    nsecs: 280300000
  frame_id: ''
orientation: 
  x: 0.0
  y: 0.0
  z: 0.0
  w: 0.0
orientation_covariance: [0.0, 0.0, 0.0, 0.0, 0.0, 0.0, 0.0, 0.0, 0.0]
angular_velocity: 
  x: -4.277801996638102
  y: 0.3420845333908886
  z: -10.786134777324957
angular_velocity_covariance: [0.0, 0.0, 0.0, 0.0, 0.0, 0.0, 0.0, 0.0, 0.0]
linear_acceleration: 
  x: 11.600000000000001
  y: -10.600000000000001
  z: -12.5
linear_acceleration_covariance: [0.0, 0.0, 0.0, 0.0, 0.0, 0.0, 0.0, 0.0, 0.0]
---
header: 
  seq: 74
  stamp: 
    secs: 22081
    nsecs: 297100000
  frame_id: ''
orientation: 
  x: 0.0
  y: 0.0
  z: 0.0
  w: 0.0
orientation_covariance: [0.0, 0.0, 0.0, 0.0, 0.0, 0.0, 0.0, 0.0, 0.0]
angular_velocity: 
  x: -5.764822519337271
  y: 0.42062434973063345
  z: -12.534954687823275
angular_velocity_covariance: [0.0, 0.0, 0.0, 0.0, 0.0, 0.0, 0.0, 0.0, 0.0]
linear_acceleration: 
  x: 0.7000000000000001
  y: -12.100000000000001
  z: -8.4
linear_acceleration_covariance: [0.0, 0.0, 0.0, 0.0, 0.0, 0.0, 0.0, 0.0, 0.0]
---
header: 
  seq: 75
  stamp: 
    secs: 22081
    nsecs: 330300000
  frame_id: ''
orientation: 
  x: 0.0
  y: 0.0
  z: 0.0
  w: 0.0
orientation_covariance: [0.0, 0.0, 0.0, 0.0, 0.0, 0.0, 0.0, 0.0, 0.0]
angular_velocity: 
  x: -7.304202919596269
  y: -1.5690509975429023
  z: -12.620475821170997
angular_velocity_covariance: [0.0, 0.0, 0.0, 0.0, 0.0, 0.0, 0.0, 0.0, 0.0]
linear_acceleration: 
  x: -57.400000000000006
  y: 3.9000000000000004
  z: 13.8
linear_acceleration_covariance: [0.0, 0.0, 0.0, 0.0, 0.0, 0.0, 0.0, 0.0, 0.0]
---
header: 
  seq: 76
  stamp: 
    secs: 22081
    nsecs: 347000000
  frame_id: ''
orientation: 
  x: 0.0
  y: 0.0
  z: 0.0
  w: 0.0
orientation_covariance: [0.0, 0.0, 0.0, 0.0, 0.0, 0.0, 0.0, 0.0, 0.0]
angular_velocity: 
  x: -6.401867696315201
  y: -4.640830481052922
  z: -0.6719517620178169
angular_velocity_covariance: [0.0, 0.0, 0.0, 0.0, 0.0, 0.0, 0.0, 0.0, 0.0]
linear_acceleration: 
  x: -64.60000000000001
  y: 3.4000000000000004
  z: 20.700000000000003
linear_acceleration_covariance: [0.0, 0.0, 0.0, 0.0, 0.0, 0.0, 0.0, 0.0, 0.0]
---
header: 
  seq: 77
  stamp: 
    secs: 22081
    nsecs: 363700000
  frame_id: ''
orientation: 
  x: 0.0
  y: 0.0
  z: 0.0
  w: 0.0
orientation_covariance: [0.0, 0.0, 0.0, 0.0, 0.0, 0.0, 0.0, 0.0, 0.0]
angular_velocity: 
  x: -1.8709929581379212
  y: -2.378883770468271
  z: 5.928883469024738
angular_velocity_covariance: [0.0, 0.0, 0.0, 0.0, 0.0, 0.0, 0.0, 0.0, 0.0]
linear_acceleration: 
  x: -44.7
  y: 2.5
  z: 23.5
linear_acceleration_covariance: [0.0, 0.0, 0.0, 0.0, 0.0, 0.0, 0.0, 0.0, 0.0]
---
header: 
  seq: 78
  stamp: 
    secs: 22081
    nsecs: 397000000
  frame_id: ''
orientation: 
  x: 0.0
  y: 0.0
  z: 0.0
  w: 0.0
orientation_covariance: [0.0, 0.0, 0.0, 0.0, 0.0, 0.0, 0.0, 0.0, 0.0]
angular_velocity: 
  x: 1.6999506914424771
  y: -2.0647245051092917
  z: 9.264207669585902
angular_velocity_covariance: [0.0, 0.0, 0.0, 0.0, 0.0, 0.0, 0.0, 0.0, 0.0]
linear_acceleration: 
  x: -11.0
  y: 4.800000000000001
  z: 8.1
linear_acceleration_covariance: [0.0, 0.0, 0.0, 0.0, 0.0, 0.0, 0.0, 0.0, 0.0]
---
header: 
  seq: 79
  stamp: 
    secs: 22081
    nsecs: 413700000
  frame_id: ''
orientation: 
  x: 0.0
  y: 0.0
  z: 0.0
  w: 0.0
orientation_covariance: [0.0, 0.0, 0.0, 0.0, 0.0, 0.0, 0.0, 0.0, 0.0]
angular_velocity: 
  x: 4.07534380340676
  y: 1.1309733552923256
  z: 9.869836920027934
angular_velocity_covariance: [0.0, 0.0, 0.0, 0.0, 0.0, 0.0, 0.0, 0.0, 0.0]
linear_acceleration: 
  x: -1.0
  y: -0.9
  z: 3.8000000000000003
linear_acceleration_covariance: [0.0, 0.0, 0.0, 0.0, 0.0, 0.0, 0.0, 0.0, 0.0]
---
header: 
  seq: 80
  stamp: 
    secs: 22081
    nsecs: 430300000
  frame_id: ''
orientation: 
  x: 0.0
  y: 0.0
  z: 0.0
  w: 0.0
orientation_covariance: [0.0, 0.0, 0.0, 0.0, 0.0, 0.0, 0.0, 0.0, 0.0]
angular_velocity: 
  x: 3.5081117965086026
  y: 2.8047441079548876
  z: 9.08269342737849
angular_velocity_covariance: [0.0, 0.0, 0.0, 0.0, 0.0, 0.0, 0.0, 0.0, 0.0]
linear_acceleration: 
  x: 8.5
  y: -4.4
  z: -3.2
linear_acceleration_covariance: [0.0, 0.0, 0.0, 0.0, 0.0, 0.0, 0.0, 0.0, 0.0]
---
header: 
  seq: 81
  stamp: 
    secs: 22081
    nsecs: 463700000
  frame_id: ''
orientation: 
  x: 0.0
  y: 0.0
  z: 0.0
  w: 0.0
orientation_covariance: [0.0, 0.0, 0.0, 0.0, 0.0, 0.0, 0.0, 0.0, 0.0]
angular_velocity: 
  x: 2.0472712125893486
  y: 3.1066860685499065
  z: 7.67944870877505
angular_velocity_covariance: [0.0, 0.0, 0.0, 0.0, 0.0, 0.0, 0.0, 0.0, 0.0]
linear_acceleration: 
  x: 29.200000000000003
  y: -6.300000000000001
  z: -0.9
linear_acceleration_covariance: [0.0, 0.0, 0.0, 0.0, 0.0, 0.0, 0.0, 0.0, 0.0]
---
header: 
  seq: 82
  stamp: 
    secs: 22081
    nsecs: 480300000
  frame_id: ''
orientation: 
  x: 0.0
  y: 0.0
  z: 0.0
  w: 0.0
orientation_covariance: [0.0, 0.0, 0.0, 0.0, 0.0, 0.0, 0.0, 0.0, 0.0]
angular_velocity: 
  x: 1.488765851951163
  y: 0.8360127117052839
  z: 3.9112828537192925
angular_velocity_covariance: [0.0, 0.0, 0.0, 0.0, 0.0, 0.0, 0.0, 0.0, 0.0]
linear_acceleration: 
  x: 34.2
  y: -5.2
  z: 0.7000000000000001
linear_acceleration_covariance: [0.0, 0.0, 0.0, 0.0, 0.0, 0.0, 0.0, 0.0, 0.0]
---
header: 
  seq: 83
  stamp: 
    secs: 22081
    nsecs: 497000000
  frame_id: ''
orientation: 
  x: 0.0
  y: 0.0
  z: 0.0
  w: 0.0
orientation_covariance: [0.0, 0.0, 0.0, 0.0, 0.0, 0.0, 0.0, 0.0, 0.0]
angular_velocity: 
  x: 2.1362830044410592
  y: 0.9459684545809266
  z: 0.7173303225696694
angular_velocity_covariance: [0.0, 0.0, 0.0, 0.0, 0.0, 0.0, 0.0, 0.0, 0.0]
linear_acceleration: 
  x: 38.5
  y: -8.4
  z: -2.9000000000000004
linear_acceleration_covariance: [0.0, 0.0, 0.0, 0.0, 0.0, 0.0, 0.0, 0.0, 0.0]
---
header: 
  seq: 84
  stamp: 
    secs: 22081
    nsecs: 530400000
  frame_id: ''
orientation: 
  x: 0.0
  y: 0.0
  z: 0.0
  w: 0.0
orientation_covariance: [0.0, 0.0, 0.0, 0.0, 0.0, 0.0, 0.0, 0.0, 0.0]
angular_velocity: 
  x: 1.7016960206944713
  y: 0.21642082724729686
  z: -2.7838001569309556
angular_velocity_covariance: [0.0, 0.0, 0.0, 0.0, 0.0, 0.0, 0.0, 0.0, 0.0]
linear_acceleration: 
  x: 31.200000000000003
  y: -5.0
  z: -14.100000000000001
linear_acceleration_covariance: [0.0, 0.0, 0.0, 0.0, 0.0, 0.0, 0.0, 0.0, 0.0]
---
header: 
  seq: 85
  stamp: 
    secs: 22081
    nsecs: 547000000
  frame_id: ''
orientation: 
  x: 0.0
  y: 0.0
  z: 0.0
  w: 0.0
orientation_covariance: [0.0, 0.0, 0.0, 0.0, 0.0, 0.0, 0.0, 0.0, 0.0]
angular_velocity: 
  x: -2.16071761396898
  y: 0.5078908123303499
  z: -8.035495876181894
angular_velocity_covariance: [0.0, 0.0, 0.0, 0.0, 0.0, 0.0, 0.0, 0.0, 0.0]
linear_acceleration: 
  x: 24.8
  y: -5.300000000000001
  z: -12.0
linear_acceleration_covariance: [0.0, 0.0, 0.0, 0.0, 0.0, 0.0, 0.0, 0.0, 0.0]
---
header: 
  seq: 86
  stamp: 
    secs: 22081
    nsecs: 580400000
  frame_id: ''
orientation: 
  x: 0.0
  y: 0.0
  z: 0.0
  w: 0.0
orientation_covariance: [0.0, 0.0, 0.0, 0.0, 0.0, 0.0, 0.0, 0.0, 0.0]
angular_velocity: 
  x: -3.618067539384245
  y: 0.9180431865490174
  z: -10.578440596337632
angular_velocity_covariance: [0.0, 0.0, 0.0, 0.0, 0.0, 0.0, 0.0, 0.0, 0.0]
linear_acceleration: 
  x: 2.3000000000000003
  y: -9.600000000000001
  z: 0.1
linear_acceleration_covariance: [0.0, 0.0, 0.0, 0.0, 0.0, 0.0, 0.0, 0.0, 0.0]
---
header: 
  seq: 87
  stamp: 
    secs: 22081
    nsecs: 597000000
  frame_id: ''
orientation: 
  x: 0.0
  y: 0.0
  z: 0.0
  w: 0.0
orientation_covariance: [0.0, 0.0, 0.0, 0.0, 0.0, 0.0, 0.0, 0.0, 0.0]
angular_velocity: 
  x: -4.127703680966589
  y: 0.9442231253289323
  z: -13.650220079847651
angular_velocity_covariance: [0.0, 0.0, 0.0, 0.0, 0.0, 0.0, 0.0, 0.0, 0.0]
linear_acceleration: 
  x: -51.300000000000004
  y: -3.8000000000000003
  z: 10.200000000000001
linear_acceleration_covariance: [0.0, 0.0, 0.0, 0.0, 0.0, 0.0, 0.0, 0.0, 0.0]
---
header: 
  seq: 88
  stamp: 
    secs: 22081
    nsecs: 613700000
  frame_id: ''
orientation: 
  x: 0.0
  y: 0.0
  z: 0.0
  w: 0.0
orientation_covariance: [0.0, 0.0, 0.0, 0.0, 0.0, 0.0, 0.0, 0.0, 0.0]
angular_velocity: 
  x: -3.209660494417572
  y: -4.288273972150068
  z: -6.803293424273897
angular_velocity_covariance: [0.0, 0.0, 0.0, 0.0, 0.0, 0.0, 0.0, 0.0, 0.0]
linear_acceleration: 
  x: -78.4
  y: 5.4
  z: 19.0
linear_acceleration_covariance: [0.0, 0.0, 0.0, 0.0, 0.0, 0.0, 0.0, 0.0, 0.0]
---
header: 
  seq: 89
  stamp: 
    secs: 22081
    nsecs: 647000000
  frame_id: ''
orientation: 
  x: 0.0
  y: 0.0
  z: 0.0
  w: 0.0
orientation_covariance: [0.0, 0.0, 0.0, 0.0, 0.0, 0.0, 0.0, 0.0, 0.0]
angular_velocity: 
  x: -0.4991641660703783
  y: -4.188790204786391
  z: 4.562290664713178
angular_velocity_covariance: [0.0, 0.0, 0.0, 0.0, 0.0, 0.0, 0.0, 0.0, 0.0]
linear_acceleration: 
  x: -21.6
  y: 3.5
  z: 23.900000000000002
linear_acceleration_covariance: [0.0, 0.0, 0.0, 0.0, 0.0, 0.0, 0.0, 0.0, 0.0]
---
header: 
  seq: 90
  stamp: 
    secs: 22081
    nsecs: 663700000
  frame_id: ''
orientation: 
  x: 0.0
  y: 0.0
  z: 0.0
  w: 0.0
orientation_covariance: [0.0, 0.0, 0.0, 0.0, 0.0, 0.0, 0.0, 0.0, 0.0]
angular_velocity: 
  x: 5.365142120630569
  y: -0.5044001538263613
  z: 9.423032631517385
angular_velocity_covariance: [0.0, 0.0, 0.0, 0.0, 0.0, 0.0, 0.0, 0.0, 0.0]
linear_acceleration: 
  x: 2.4000000000000004
  y: 3.4000000000000004
  z: 13.4
linear_acceleration_covariance: [0.0, 0.0, 0.0, 0.0, 0.0, 0.0, 0.0, 0.0, 0.0]
---
header: 
  seq: 91
  stamp: 
    secs: 22081
    nsecs: 680400000
  frame_id: ''
orientation: 
  x: 0.0
  y: 0.0
  z: 0.0
  w: 0.0
orientation_covariance: [0.0, 0.0, 0.0, 0.0, 0.0, 0.0, 0.0, 0.0, 0.0]
angular_velocity: 
  x: 5.352924815866609
  y: 0.9948376736367679
  z: 7.8941242067703525
angular_velocity_covariance: [0.0, 0.0, 0.0, 0.0, 0.0, 0.0, 0.0, 0.0, 0.0]
linear_acceleration: 
  x: -1.4000000000000001
  y: -4.2
  z: -0.7000000000000001
linear_acceleration_covariance: [0.0, 0.0, 0.0, 0.0, 0.0, 0.0, 0.0, 0.0, 0.0]
---
header: 
  seq: 92
  stamp: 
    secs: 22081
    nsecs: 713700000
  frame_id: ''
orientation: 
  x: 0.0
  y: 0.0
  z: 0.0
  w: 0.0
orientation_covariance: [0.0, 0.0, 0.0, 0.0, 0.0, 0.0, 0.0, 0.0, 0.0]
angular_velocity: 
  x: 4.122467693210607
  y: 1.6824973989225338
  z: 8.531169383748283
angular_velocity_covariance: [0.0, 0.0, 0.0, 0.0, 0.0, 0.0, 0.0, 0.0, 0.0]
linear_acceleration: 
  x: 4.6000000000000005
  y: -17.5
  z: -5.0
linear_acceleration_covariance: [0.0, 0.0, 0.0, 0.0, 0.0, 0.0, 0.0, 0.0, 0.0]
---
header: 
  seq: 93
  stamp: 
    secs: 22081
    nsecs: 730300000
  frame_id: ''
orientation: 
  x: 0.0
  y: 0.0
  z: 0.0
  w: 0.0
orientation_covariance: [0.0, 0.0, 0.0, 0.0, 0.0, 0.0, 0.0, 0.0, 0.0]
angular_velocity: 
  x: 2.3928464044842257
  y: -1.1292280260403313
  z: 11.458086539342773
angular_velocity_covariance: [0.0, 0.0, 0.0, 0.0, 0.0, 0.0, 0.0, 0.0, 0.0]
linear_acceleration: 
  x: 18.7
  y: -24.200000000000003
  z: -2.9000000000000004
linear_acceleration_covariance: [0.0, 0.0, 0.0, 0.0, 0.0, 0.0, 0.0, 0.0, 0.0]
---
header: 
  seq: 94
  stamp: 
    secs: 22081
    nsecs: 747000000
  frame_id: ''
orientation: 
  x: 0.0
  y: 0.0
  z: 0.0
  w: 0.0
orientation_covariance: [0.0, 0.0, 0.0, 0.0, 0.0, 0.0, 0.0, 0.0, 0.0]
angular_velocity: 
  x: 3.9933133285630262
  y: -2.6616271092913526
  z: 9.531243045141034
angular_velocity_covariance: [0.0, 0.0, 0.0, 0.0, 0.0, 0.0, 0.0, 0.0, 0.0]
linear_acceleration: 
  x: 49.400000000000006
  y: -23.6
  z: -2.8000000000000003
linear_acceleration_covariance: [0.0, 0.0, 0.0, 0.0, 0.0, 0.0, 0.0, 0.0, 0.0]
---
header: 
  seq: 95
  stamp: 
    secs: 22081
    nsecs: 780300000
  frame_id: ''
orientation: 
  x: 0.0
  y: 0.0
  z: 0.0
  w: 0.0
orientation_covariance: [0.0, 0.0, 0.0, 0.0, 0.0, 0.0, 0.0, 0.0, 0.0]
angular_velocity: 
  x: 4.546582701445229
  y: -2.4172810140121466
  z: 2.626720524251466
angular_velocity_covariance: [0.0, 0.0, 0.0, 0.0, 0.0, 0.0, 0.0, 0.0, 0.0]
linear_acceleration: 
  x: 53.0
  y: -17.400000000000002
  z: -21.1
linear_acceleration_covariance: [0.0, 0.0, 0.0, 0.0, 0.0, 0.0, 0.0, 0.0, 0.0]
---
header: 
  seq: 96
  stamp: 
    secs: 22081
    nsecs: 797000000
  frame_id: ''
orientation: 
  x: 0.0
  y: 0.0
  z: 0.0
  w: 0.0
orientation_covariance: [0.0, 0.0, 0.0, 0.0, 0.0, 0.0, 0.0, 0.0, 0.0]
angular_velocity: 
  x: -0.9616764178488756
  y: -0.08203047484373349
  z: -9.620254836992745
angular_velocity_covariance: [0.0, 0.0, 0.0, 0.0, 0.0, 0.0, 0.0, 0.0, 0.0]
linear_acceleration: 
  x: 27.8
  y: -15.4
  z: -23.1
linear_acceleration_covariance: [0.0, 0.0, 0.0, 0.0, 0.0, 0.0, 0.0, 0.0, 0.0]
---
header: 
  seq: 97
  stamp: 
    secs: 22081
    nsecs: 813700000
  frame_id: ''
orientation: 
  x: 0.0
  y: 0.0
  z: 0.0
  w: 0.0
orientation_covariance: [0.0, 0.0, 0.0, 0.0, 0.0, 0.0, 0.0, 0.0, 0.0]
angular_velocity: 
  x: -3.9776053652950774
  y: 0.6422811647339133
  z: -11.657054074070127
angular_velocity_covariance: [0.0, 0.0, 0.0, 0.0, 0.0, 0.0, 0.0, 0.0, 0.0]
linear_acceleration: 
  x: 14.3
  y: -13.700000000000001
  z: -16.0
linear_acceleration_covariance: [0.0, 0.0, 0.0, 0.0, 0.0, 0.0, 0.0, 0.0, 0.0]
---
header: 
  seq: 98
  stamp: 
    secs: 22081
    nsecs: 847100000
  frame_id: ''
orientation: 
  x: 0.0
  y: 0.0
  z: 0.0
  w: 0.0
orientation_covariance: [0.0, 0.0, 0.0, 0.0, 0.0, 0.0, 0.0, 0.0, 0.0]
angular_velocity: 
  x: -5.911430176504794
  y: 0.9302604913129777
  z: -13.09695070696545
angular_velocity_covariance: [0.0, 0.0, 0.0, 0.0, 0.0, 0.0, 0.0, 0.0, 0.0]
linear_acceleration: 
  x: -13.9
  y: -13.200000000000001
  z: 2.5
linear_acceleration_covariance: [0.0, 0.0, 0.0, 0.0, 0.0, 0.0, 0.0, 0.0, 0.0]
---
header: 
  seq: 99
  stamp: 
    secs: 22081
    nsecs: 863700000
  frame_id: ''
orientation: 
  x: 0.0
  y: 0.0
  z: 0.0
  w: 0.0
orientation_covariance: [0.0, 0.0, 0.0, 0.0, 0.0, 0.0, 0.0, 0.0, 0.0]
angular_velocity: 
  x: -6.398377037811212
  y: -1.413716694115407
  z: -12.892747184482113
angular_velocity_covariance: [0.0, 0.0, 0.0, 0.0, 0.0, 0.0, 0.0, 0.0, 0.0]
linear_acceleration: 
  x: -50.7
  y: -6.2
  z: 17.400000000000002
linear_acceleration_covariance: [0.0, 0.0, 0.0, 0.0, 0.0, 0.0, 0.0, 0.0, 0.0]
---
header: 
  seq: 100
  stamp: 
    secs: 22081
    nsecs: 897000000
  frame_id: ''
orientation: 
  x: 0.0
  y: 0.0
  z: 0.0
  w: 0.0
orientation_covariance: [0.0, 0.0, 0.0, 0.0, 0.0, 0.0, 0.0, 0.0, 0.0]
angular_velocity: 
  x: -3.7908551353316837
  y: -3.368485456349056
  z: -5.808455750637129
angular_velocity_covariance: [0.0, 0.0, 0.0, 0.0, 0.0, 0.0, 0.0, 0.0, 0.0]
linear_acceleration: 
  x: -60.400000000000006
  y: 7.9
  z: 30.1
linear_acceleration_covariance: [0.0, 0.0, 0.0, 0.0, 0.0, 0.0, 0.0, 0.0, 0.0]
---
header: 
  seq: 101
  stamp: 
    secs: 22081
    nsecs: 913700000
  frame_id: ''
orientation: 
  x: 0.0
  y: 0.0
  z: 0.0
  w: 0.0
orientation_covariance: [0.0, 0.0, 0.0, 0.0, 0.0, 0.0, 0.0, 0.0, 0.0]
angular_velocity: 
  x: 4.337143191205909
  y: -0.3246312408709453
  z: 7.468263869283736
angular_velocity_covariance: [0.0, 0.0, 0.0, 0.0, 0.0, 0.0, 0.0, 0.0, 0.0]
linear_acceleration: 
  x: -23.5
  y: 9.600000000000001
  z: 22.0
linear_acceleration_covariance: [0.0, 0.0, 0.0, 0.0, 0.0, 0.0, 0.0, 0.0, 0.0]
---
header: 
  seq: 102
  stamp: 
    secs: 22081
    nsecs: 930300000
  frame_id: ''
orientation: 
  x: 0.0
  y: 0.0
  z: 0.0
  w: 0.0
orientation_covariance: [0.0, 0.0, 0.0, 0.0, 0.0, 0.0, 0.0, 0.0, 0.0]
angular_velocity: 
  x: 5.785766470361202
  y: 1.0541788682045752
  z: 7.721336610822914
angular_velocity_covariance: [0.0, 0.0, 0.0, 0.0, 0.0, 0.0, 0.0, 0.0, 0.0]
linear_acceleration: 
  x: -8.1
  y: 6.7
  z: 5.4
linear_acceleration_covariance: [0.0, 0.0, 0.0, 0.0, 0.0, 0.0, 0.0, 0.0, 0.0]
---
header: 
  seq: 103
  stamp: 
    secs: 22081
    nsecs: 963700000
  frame_id: ''
orientation: 
  x: 0.0
  y: 0.0
  z: 0.0
  w: 0.0
orientation_covariance: [0.0, 0.0, 0.0, 0.0, 0.0, 0.0, 0.0, 0.0, 0.0]
angular_velocity: 
  x: 4.785692808968451
  y: 1.4538592669112766
  z: 7.513642429835589
angular_velocity_covariance: [0.0, 0.0, 0.0, 0.0, 0.0, 0.0, 0.0, 0.0, 0.0]
linear_acceleration: 
  x: -3.9000000000000004
  y: 0.2
  z: -8.5
linear_acceleration_covariance: [0.0, 0.0, 0.0, 0.0, 0.0, 0.0, 0.0, 0.0, 0.0]
---
header: 
  seq: 104
  stamp: 
    secs: 22081
    nsecs: 980300000
  frame_id: ''
orientation: 
  x: 0.0
  y: 0.0
  z: 0.0
  w: 0.0
orientation_covariance: [0.0, 0.0, 0.0, 0.0, 0.0, 0.0, 0.0, 0.0, 0.0]
angular_velocity: 
  x: 1.2217304763960306
  y: 1.3805554383275147
  z: 9.096656061394446
angular_velocity_covariance: [0.0, 0.0, 0.0, 0.0, 0.0, 0.0, 0.0, 0.0, 0.0]
linear_acceleration: 
  x: 0.5
  y: -4.4
  z: -4.3
linear_acceleration_covariance: [0.0, 0.0, 0.0, 0.0, 0.0, 0.0, 0.0, 0.0, 0.0]
---
header: 
  seq: 105
  stamp: 
    secs: 22081
    nsecs: 997000000
  frame_id: ''
orientation: 
  x: 0.0
  y: 0.0
  z: 0.0
  w: 0.0
orientation_covariance: [0.0, 0.0, 0.0, 0.0, 0.0, 0.0, 0.0, 0.0, 0.0]
angular_velocity: 
  x: 0.8028514559173916
  y: 1.4172073526193956
  z: 9.972811345895598
angular_velocity_covariance: [0.0, 0.0, 0.0, 0.0, 0.0, 0.0, 0.0, 0.0, 0.0]
linear_acceleration: 
  x: 9.200000000000001
  y: -10.8
  z: -0.2
linear_acceleration_covariance: [0.0, 0.0, 0.0, 0.0, 0.0, 0.0, 0.0, 0.0, 0.0]
---
header: 
  seq: 106
  stamp: 
    secs: 22082
    nsecs:  30300000
  frame_id: ''
orientation: 
  x: 0.0
  y: 0.0
  z: 0.0
  w: 0.0
orientation_covariance: [0.0, 0.0, 0.0, 0.0, 0.0, 0.0, 0.0, 0.0, 0.0]
angular_velocity: 
  x: 1.1152653920243767
  y: 0.5864306286700948
  z: 9.923942126839759
angular_velocity_covariance: [0.0, 0.0, 0.0, 0.0, 0.0, 0.0, 0.0, 0.0, 0.0]
linear_acceleration: 
  x: 48.0
  y: -19.5
  z: -4.5
linear_acceleration_covariance: [0.0, 0.0, 0.0, 0.0, 0.0, 0.0, 0.0, 0.0, 0.0]
---
header: 
  seq: 107
  stamp: 
    secs: 22082
    nsecs:  47000000
  frame_id: ''
orientation: 
  x: 0.0
  y: 0.0
  z: 0.0
  w: 0.0
orientation_covariance: [0.0, 0.0, 0.0, 0.0, 0.0, 0.0, 0.0, 0.0, 0.0]
angular_velocity: 
  x: 1.8186330805780915
  y: -1.2566370614359172
  z: 1.9128808601857852
angular_velocity_covariance: [0.0, 0.0, 0.0, 0.0, 0.0, 0.0, 0.0, 0.0, 0.0]
linear_acceleration: 
  x: 61.2
  y: -14.3
  z: -13.100000000000001
linear_acceleration_covariance: [0.0, 0.0, 0.0, 0.0, 0.0, 0.0, 0.0, 0.0, 0.0]
---
header: 
  seq: 108
  stamp: 
    secs: 22082
    nsecs:  63700000
  frame_id: ''
orientation: 
  x: 0.0
  y: 0.0
  z: 0.0
  w: 0.0
orientation_covariance: [0.0, 0.0, 0.0, 0.0, 0.0, 0.0, 0.0, 0.0, 0.0]
angular_velocity: 
  x: -0.35255650890285456
  y: -0.3647738136668149
  z: -4.347615166717875
angular_velocity_covariance: [0.0, 0.0, 0.0, 0.0, 0.0, 0.0, 0.0, 0.0, 0.0]
linear_acceleration: 
  x: 48.2
  y: -12.600000000000001
  z: -18.5
linear_acceleration_covariance: [0.0, 0.0, 0.0, 0.0, 0.0, 0.0, 0.0, 0.0, 0.0]
---
header: 
  seq: 109
  stamp: 
    secs: 22082
    nsecs:  97000000
  frame_id: ''
orientation: 
  x: 0.0
  y: 0.0
  z: 0.0
  w: 0.0
orientation_covariance: [0.0, 0.0, 0.0, 0.0, 0.0, 0.0, 0.0, 0.0, 0.0]
angular_velocity: 
  x: -2.710496328347194
  y: 0.3193952531149623
  z: -8.00582527889799
angular_velocity_covariance: [0.0, 0.0, 0.0, 0.0, 0.0, 0.0, 0.0, 0.0, 0.0]
linear_acceleration: 
  x: 19.5
  y: -11.8
  z: -8.9
linear_acceleration_covariance: [0.0, 0.0, 0.0, 0.0, 0.0, 0.0, 0.0, 0.0, 0.0]
---
header: 
  seq: 110
  stamp: 
    secs: 22082
    nsecs: 113700000
  frame_id: ''
orientation: 
  x: 0.0
  y: 0.0
  z: 0.0
  w: 0.0
orientation_covariance: [0.0, 0.0, 0.0, 0.0, 0.0, 0.0, 0.0, 0.0, 0.0]
angular_velocity: 
  x: -5.265658353266892
  y: 1.0506882097005865
  z: -12.386601701403757
angular_velocity_covariance: [0.0, 0.0, 0.0, 0.0, 0.0, 0.0, 0.0, 0.0, 0.0]
linear_acceleration: 
  x: 10.600000000000001
  y: -12.5
  z: -4.800000000000001
linear_acceleration_covariance: [0.0, 0.0, 0.0, 0.0, 0.0, 0.0, 0.0, 0.0, 0.0]
---
header: 
  seq: 111
  stamp: 
    secs: 22082
    nsecs: 147000000
  frame_id: ''
orientation: 
  x: 0.0
  y: 0.0
  z: 0.0
  w: 0.0
orientation_covariance: [0.0, 0.0, 0.0, 0.0, 0.0, 0.0, 0.0, 0.0, 0.0]
angular_velocity: 
  x: -6.435028952103093
  y: 0.6335545184739416
  z: -14.751522837856074
angular_velocity_covariance: [0.0, 0.0, 0.0, 0.0, 0.0, 0.0, 0.0, 0.0, 0.0]
linear_acceleration: 
  x: -38.2
  y: -14.5
  z: 14.600000000000001
linear_acceleration_covariance: [0.0, 0.0, 0.0, 0.0, 0.0, 0.0, 0.0, 0.0, 0.0]
---
header: 
  seq: 112
  stamp: 
    secs: 22082
    nsecs: 163600000
  frame_id: ''
orientation: 
  x: 0.0
  y: 0.0
  z: 0.0
  w: 0.0
orientation_covariance: [0.0, 0.0, 0.0, 0.0, 0.0, 0.0, 0.0, 0.0, 0.0]
angular_velocity: 
  x: -7.738789903342857
  y: -1.0541788682045752
  z: -15.638150097869193
angular_velocity_covariance: [0.0, 0.0, 0.0, 0.0, 0.0, 0.0, 0.0, 0.0, 0.0]
linear_acceleration: 
  x: -74.9
  y: -5.5
  z: 24.3
linear_acceleration_covariance: [0.0, 0.0, 0.0, 0.0, 0.0, 0.0, 0.0, 0.0, 0.0]
---
header: 
  seq: 113
  stamp: 
    secs: 22082
    nsecs: 180300000
  frame_id: ''
orientation: 
  x: 0.0
  y: 0.0
  z: 0.0
  w: 0.0
orientation_covariance: [0.0, 0.0, 0.0, 0.0, 0.0, 0.0, 0.0, 0.0, 0.0]
angular_velocity: 
  x: -2.609267231731523
  y: -3.7524578917878086
  z: 1.1414453308042916
angular_velocity_covariance: [0.0, 0.0, 0.0, 0.0, 0.0, 0.0, 0.0, 0.0, 0.0]
linear_acceleration: 
  x: -73.3
  y: -6.1000000000000005
  z: 36.6
linear_acceleration_covariance: [0.0, 0.0, 0.0, 0.0, 0.0, 0.0, 0.0, 0.0, 0.0]
---
header: 
  seq: 114
  stamp: 
    secs: 22082
    nsecs: 213700000
  frame_id: ''
orientation: 
  x: 0.0
  y: 0.0
  z: 0.0
  w: 0.0
orientation_covariance: [0.0, 0.0, 0.0, 0.0, 0.0, 0.0, 0.0, 0.0, 0.0]
angular_velocity: 
  x: 3.2166418114255495
  y: -3.6617007706841034
  z: 8.979719001510826
angular_velocity_covariance: [0.0, 0.0, 0.0, 0.0, 0.0, 0.0, 0.0, 0.0, 0.0]
linear_acceleration: 
  x: -4.0
  y: 0.9
  z: 12.600000000000001
linear_acceleration_covariance: [0.0, 0.0, 0.0, 0.0, 0.0, 0.0, 0.0, 0.0, 0.0]
---
header: 
  seq: 115
  stamp: 
    secs: 22082
    nsecs: 230400000
  frame_id: ''
orientation: 
  x: 0.0
  y: 0.0
  z: 0.0
  w: 0.0
orientation_covariance: [0.0, 0.0, 0.0, 0.0, 0.0, 0.0, 0.0, 0.0, 0.0]
angular_velocity: 
  x: 6.234316088123745
  y: -1.0088003076527225
  z: 8.998917623282763
angular_velocity_covariance: [0.0, 0.0, 0.0, 0.0, 0.0, 0.0, 0.0, 0.0, 0.0]
linear_acceleration: 
  x: 8.9
  y: 1.5
  z: 5.300000000000001
linear_acceleration_covariance: [0.0, 0.0, 0.0, 0.0, 0.0, 0.0, 0.0, 0.0, 0.0]
---
header: 
  seq: 116
  stamp: 
    secs: 22082
    nsecs: 247000000
  frame_id: ''
orientation: 
  x: 0.0
  y: 0.0
  z: 0.0
  w: 0.0
orientation_covariance: [0.0, 0.0, 0.0, 0.0, 0.0, 0.0, 0.0, 0.0, 0.0]
angular_velocity: 
  x: 5.993460651348528
  y: -0.4956735075663896
  z: 7.820820378186591
angular_velocity_covariance: [0.0, 0.0, 0.0, 0.0, 0.0, 0.0, 0.0, 0.0, 0.0]
linear_acceleration: 
  x: 6.4
  y: -2.3000000000000003
  z: -1.0
linear_acceleration_covariance: [0.0, 0.0, 0.0, 0.0, 0.0, 0.0, 0.0, 0.0, 0.0]
---
header: 
  seq: 117
  stamp: 
    secs: 22082
    nsecs: 280400000
  frame_id: ''
orientation: 
  x: 0.0
